$GPGSV,3,1,09,27,77,355,39,26,65,282,40,15,46,173,30,12,39,236,34*7C
$GPGSV,3,2,09,17,38,067,20,18,21,263,28,22,17,299,29,30,07,238,*7A
$GPGSV,3,3,09,28,06,054,13*4F
$GPRMC,190227.696,A,4529.4279,N,00909.0627,E,5.15,311.25,090410,,,A*60
$GPGGA,190228.696,4529.4288,N,00909.0617,E,1,07,1.3,176.1,M,,,,0000*0E
$GPGSA,A,3,15,26,17,12,18,22,27,,,,,,2.3,1.3,1.9*30
$GPGSV,3,1,09,27,77,355,37,26,65,282,39,15,46,173,31,12,39,236,38*71
$GPGSV,3,2,09,17,38,067,20,18,21,263,25,22,17,299,29,30,07,238,*77
$GPGSV,3,3,09,28,06,054,13*4F
$GPRMC,190228.696,A,4529.4288,N,00909.0617,E,3.87,314.72,090410,,,A*68
$GPGGA,190229.696,4529.4299,N,00909.0609,E,1,07,1.3,176.8,M,,,,0000*09
$GPGSA,A,3,15,26,17,12,18,22,27,,,,,,2.3,1.3,1.9*30
$GPGSV,3,1,09,27,77,355,38,26,65,282,42,15,46,173,36,12,39,236,42*78
$GPGSV,3,2,09,17,38,067,20,18,21,263,36,22,17,299,30,30,07,238,*7D
$GPGSV,3,3,09,28,06,054,13*4F
$GPRMC,190229.696,A,4529.4299,N,00909.0609,E,3.49,304.41,090410,,,A*65
$GPGGA,190230.696,4529.4310,N,00909.0591,E,1,07,1.3,178.0,M,,,,0000*05
$GPGSA,A,3,15,26,17,12,18,22,27,,,,,,2.3,1.3,1.9*30
$GPGSV,3,1,09,27,77,355,38,26,65,282,41,15,46,173,37,12,39,236,35*7A
$GPGSV,3,2,09,17,38,067,19,18,21,263,37,22,17,299,26,30,07,238,*71
$GPGSV,3,3,09,28,06,054,13*4F
$GPRMC,190230.696,A,4529.4310,N,00909.0591,E,5.69,302.77,090410,,,A*68
$GPGGA,190231.696,4529.4322,N,00909.0563,E,1,07,1.3,180.1,M,,,,0000*0E
$GPGSA,A,3,15,26,17,12,18,22,27,,,,,,2.3,1.3,1.9*30
$GPGSV,3,1,09,27,77,355,37,26,65,282,40,15,46,173,34,12,39,236,36*74
$GPGSV,3,2,09,17,38,067,22,18,21,263,36,22,17,299,25,30,07,238,*7B
$GPGSV,3,3,09,28,06,054,13*4F
$GPRMC,190231.696,A,4529.4322,N,00909.0563,E,7.88,298.13,090410,,,A*68
$GPGGA,190232.696,4529.4334,N,00909.0524,E,1,07,1.3,177.4,M,,,,0000*04
$GPGSA,A,3,15,26,17,12,18,22,27,,,,,,2.3,1.3,1.9*30
$GPGSV,3,1,09,27,77,355,38,26,65,282,40,15,46,173,34,12,39,236,36*7B
$GPGSV,3,2,09,17,38,067,21,18,21,263,35,22,17,299,32,30,07,238,*7D
$GPGSV,3,3,09,28,06,054,13*4F
$GPRMC,190232.696,A,4529.4334,N,00909.0524,E,10.70,297.00,090410,,,A*53
$GPGGA,190233.696,4529.4351,N,00909.0479,E,1,07,1.3,176.7,M,,,,0000*0D
$GPGSA,A,3,15,26,17,12,18,22,27,,,,,,2.3,1.3,1.9*30
$GPGSV,3,1,09,27,77,355,38,26,65,282,40,15,46,173,36,12,39,236,37*78
$GPGSV,3,2,09,17,38,067,19,18,21,263,37,22,17,299,31,30,07,238,*77
$GPGSV,3,3,09,28,06,054,13*4F
$GPRMC,190233.696,A,4529.4351,N,00909.0479,E,13.46,299.44,090410,,,A*50
$GPGGA,190234.696,4529.4378,N,00909.0425,E,1,07,1.3,177.0,M,,,,0000*0E
$GPGSA,A,3,15,26,17,12,18,22,27,,,,,,2.3,1.3,1.9*30
$GPGSV,3,1,09,27,77,355,37,26,65,282,41,15,46,173,35,12,39,236,35*77
$GPGSV,3,2,09,17,38,067,20,18,21,263,37,22,17,299,34,30,07,238,*78
$GPGSV,3,3,09,28,06,054,13*4F
$GPRMC,190234.696,A,4529.4378,N,00909.0425,E,15.74,302.77,090410,,,A*51
$GPGGA,190235.696,4529.4403,N,00909.0371,E,1,07,1.3,177.5,M,,,,0000*07
$GPGSA,A,3,15,26,17,12,18,22,27,,,,,,2.3,1.3,1.9*30
$GPGSV,3,1,09,27,77,355,37,26,65,282,41,15,46,173,36,12,39,236,37*76
$GPGSV,3,2,09,17,38,067,21,18,21,263,35,22,17,299,34,30,07,238,*7B
$GPGSV,3,3,09,28,06,054,*4D
$GPRMC,190235.696,A,4529.4403,N,00909.0371,E,16.43,305.06,090410,,,A*5B
$GPGGA,190236.696,4529.4435,N,00909.0319,E,1,07,1.3,173.3,M,,,,0000*0D
$GPGSA,A,3,15,26,17,12,18,22,27,,,,,,2.3,1.3,1.9*30
$GPGSV,3,1,09,27,77,355,38,26,65,282,42,15,46,173,34,12,39,236,39*76
$GPGSV,3,2,09,17,38,067,20,18,21,263,24,22,17,299,35,30,07,238,*7B
$GPGSV,3,3,09,28,06,054,*4D
$GPRMC,190236.696,A,4529.4435,N,00909.0319,E,16.55,306.00,090410,,,A*51
$GPGGA,190237.696,4529.4469,N,00909.0265,E,1,07,1.3,171.5,M,,,,0000*0B
$GPGSA,A,3,15,26,17,12,18,22,27,,,,,,2.3,1.3,1.9*30
$GPGSV,3,1,09,27,77,355,38,26,65,282,42,15,46,173,33,12,39,236,39*71
$GPGSV,3,2,09,17,38,067,21,18,21,263,23,22,17,299,34,30,07,238,*7C
$GPGSV,3,3,09,28,06,054,*4D
$GPRMC,190237.696,A,4529.4469,N,00909.0265,E,17.03,303.86,090410,,,A*5A
$GPGGA,190238.696,4529.4497,N,00909.0207,E,1,06,2.3,172.4,M,,,,0000*01
$GPGSA,A,3,15,26,12,18,22,27,,,,,,,3.6,2.3,2.8*33
$GPGSV,3,1,09,27,77,355,38,26,65,282,42,15,46,173,36,12,39,236,37*7A
$GPGSV,3,2,09,17,38,067,25,18,21,263,21,22,17,299,33,30,07,238,*7D
$GPGSV,3,3,09,28,06,054,*4D
$GPRMC,190238.696,A,4529.4497,N,00909.0207,E,17.55,301.10,090410,,,A*5E
$GPGGA,190239.695,4529.4524,N,00909.0145,E,1,07,1.3,171.0,M,,,,0000*0A
$GPGSA,A,3,15,26,17,12,18,22,27,,,,,,2.3,1.3,1.9*30
$GPGSV,3,1,09,27,77,355,38,26,65,282,41,15,46,173,34,12,39,236,36*7A
$GPGSV,3,2,09,17,38,067,22,18,21,263,20,22,17,299,33,30,07,238,*7B
$GPGSV,3,3,09,28,06,054,*4D
$GPRMC,190239.695,A,4529.4524,N,00909.0145,E,18.14,298.64,090410,,,A*58
$GPGGA,190240.695,4529.4548,N,00909.0083,E,1,07,1.3,171.9,M,,,,0000*0C
$GPGSA,A,3,15,26,17,12,18,22,27,,,,,,2.3,1.3,1.9*30
$GPGSV,3,1,09,27,77,355,37,26,65,282,41,15,46,173,35,12,39,236,31*73
$GPGSV,3,2,09,17,38,067,21,18,21,263,23,22,17,299,30,30,07,238,*78
$GPGSV,3,3,09,28,06,054,*4D
$GPRMC,190240.695,A,4529.4548,N,00909.0083,E,17.35,299.89,090410,,,A*59
$GPGGA,190241.695,4529.4572,N,00909.0019,E,1,07,1.3,172.3,M,,,,0000*0E
$GPGSA,A,3,15,26,17,12,18,22,27,,,,,,2.3,1.3,1.9*30
$GPGSV,3,1,09,27,77,355,39,26,65,282,42,15,46,173,37,12,39,236,32*7F
$GPGSV,3,2,09,17,38,067,19,18,21,263,24,22,17,299,29,30,07,238,*7C
$GPGSV,3,3,09,28,06,054,*4D
$GPRMC,190241.695,A,4529.4572,N,00909.0019,E,18.19,299.59,090410,,,A*5E
$GPGGA,190242.695,4529.4598,N,00908.9958,E,1,07,1.3,172.2,M,,,,0000*0C
$GPGSA,A,3,15,26,17,12,18,22,27,,,,,,2.3,1.3,1.9*30
$GPGSV,3,1,09,27,77,355,39,26,65,282,42,15,46,173,36,12,39,236,33*7F
$GPGSV,3,2,09,17,38,067,20,18,21,263,27,22,17,299,31,30,07,238,*7C
$GPGSV,3,3,09,28,06,054,*4D
$GPRMC,190242.695,A,4529.4598,N,00908.9958,E,17.56,303.35,090410,,,A*51
$GPGGA,190243.695,4529.4624,N,00908.9895,E,1,07,1.3,172.5,M,,,,0000*0E
$GPGSA,A,3,15,26,17,12,18,22,27,,,,,,2.3,1.3,1.9*30
$GPGSV,3,1,09,27,77,355,38,26,65,282,39,15,46,173,36,12,39,236,30*71
$GPGSV,3,2,09,17,38,067,18,18,21,263,36,22,17,299,29,30,07,238,*7E
$GPGSV,3,3,09,28,06,054,*4D
$GPRMC,190243.695,A,4529.4624,N,00908.9895,E,18.26,301.84,090410,,,A*54
$GPGGA,190244.695,4529.4651,N,00908.9830,E,1,07,1.3,174.2,M,,,,0000*05
$GPGSA,A,3,15,26,17,12,18,22,27,,,,,,2.3,1.3,1.9*30
$GPGSV,3,1,09,27,77,355,38,26,65,282,41,15,46,173,36,12,39,236,31*7F
$GPGSV,3,2,09,17,38,067,21,18,21,263,38,22,17,299,30,30,07,238,*72
$GPGSV,3,3,09,28,06,054,*4D
$GPRMC,190244.695,A,4529.4651,N,00908.9830,E,18.59,302.62,090410,,,A*5D
$GPGGA,190245.695,4529.4679,N,00908.9768,E,1,07,1.3,174.0,M,,,,0000*0E
$GPGSA,A,3,15,26,17,12,18,22,27,,,,,,2.3,1.3,1.9*30
$GPGSV,3,1,09,27,77,355,39,26,65,282,41,15,46,173,32,12,39,236,35*7E
$GPGSV,3,2,09,17,38,067,21,18,21,263,36,22,17,299,31,30,07,238,*7D
$GPGSV,3,3,09,28,06,054,*4D
$GPRMC,190245.695,A,4529.4679,N,00908.9768,E,17.73,301.03,090410,,,A*57
$GPGGA,190246.695,4529.4706,N,00908.9707,E,1,07,1.3,173.0,M,,,,0000*0A
$GPGSA,A,3,15,26,17,12,18,22,27,,,,,,2.3,1.3,1.9*30
$GPGSV,3,1,09,27,78,356,40,26,66,282,41,15,46,173,33,12,40,236,40*72
$GPGSV,3,2,09,17,38,067,22,18,21,263,39,22,17,299,30,30,07,238,*70
$GPGSV,3,3,09,28,06,054,*4D
$GPRMC,190246.695,A,4529.4706,N,00908.9707,E,18.11,303.61,090410,,,A*59
$GPGGA,190247.695,4529.4732,N,00908.9640,E,1,07,1.3,175.5,M,,,,0000*0D
$GPGSA,A,3,15,26,17,12,18,22,27,,,,,,2.3,1.3,1.9*30
$GPGSV,3,1,09,27,78,356,40,26,66,282,41,15,46,173,36,12,40,236,38*78
$GPGSV,3,2,09,17,38,067,20,18,21,263,39,22,17,299,30,30,07,238,*72
$GPGSV,3,3,09,28,06,054,*4D
$GPRMC,190247.695,A,4529.4732,N,00908.9640,E,17.88,301.32,090410,,,A*56
$GPGGA,190248.695,4529.4760,N,00908.9577,E,1,07,1.3,177.2,M,,,,0000*07
$GPGSA,A,3,15,26,17,12,18,22,27,,,,,,2.3,1.3,1.9*30
$GPGSV,3,1,09,27,78,356,39,26,66,282,41,15,46,173,35,12,40,236,38*75
$GPGSV,3,2,09,17,38,067,21,18,21,263,36,22,17,299,29,30,07,238,*74
$GPGSV,3,3,09,28,06,054,*4D
$GPRMC,190248.695,A,4529.4760,N,00908.9577,E,18.98,303.22,090410,,,A*54
$GPGGA,190249.695,4529.4791,N,00908.9512,E,1,07,1.3,178.0,M,,,,0000*06
$GPGSA,A,3,15,26,17,12,18,22,27,,,,,,2.3,1.3,1.9*30
$GPGSV,3,1,09,27,78,356,39,26,66,282,41,15,46,173,34,12,40,236,39*75
$GPGSV,3,2,09,17,38,067,18,18,21,263,38,22,17,299,29,30,07,238,*70
$GPGSV,3,3,09,28,06,054,*4D
$GPRMC,190249.695,A,4529.4791,N,00908.9512,E,19.28,303.80,090410,,,A*5A
$GPGGA,190250.695,4529.4819,N,00908.9445,E,1,07,1.3,177.9,M,,,,0000*04
$GPGSA,A,3,15,26,17,12,18,22,27,,,,,,2.3,1.3,1.9*30
$GPGSV,3,1,09,27,78,356,40,26,66,282,41,15,46,173,32,12,40,236,39*7D
$GPGSV,3,2,09,17,38,067,15,18,21,263,37,22,17,299,30,30,07,238,*7A
$GPGSV,3,3,09,28,06,054,*4D
$GPRMC,190250.695,A,4529.4819,N,00908.9445,E,19.58,303.18,090410,,,A*58
$GPGGA,190251.695,4529.4849,N,00908.9379,E,1,07,1.3,180.2,M,,,,0000*0B
$GPGSA,A,3,15,26,17,12,18,22,27,,,,,,2.3,1.3,1.9*30
$GPGSV,3,1,09,27,78,356,38,26,66,282,41,15,46,173,31,12,40,236,38*70
$GPGSV,3,2,09,17,38,067,16,18,21,263,29,22,17,299,32,30,07,238,*74
$GPGSV,3,3,09,28,06,054,*4D
$GPRMC,190251.695,A,4529.4849,N,00908.9379,E,19.64,304.82,090410,,,A*5F
$GPGGA,190252.695,4529.4878,N,00908.9316,E,1,06,2.3,180.3,M,,,,0000*00
$GPGSA,A,3,15,26,12,18,22,27,,,,,,,3.6,2.3,2.8*33
$GPGSV,3,1,09,27,78,356,39,26,66,282,42,15,46,173,33,12,40,236,39*71
$GPGSV,3,2,09,17,38,067,16,18,21,263,24,22,17,299,33,30,07,238,*78
$GPGSV,3,3,09,28,06,054,*4D
$GPRMC,190252.695,A,4529.4878,N,00908.9316,E,18.17,303.61,090410,,,A*58
$GPGGA,190253.695,4529.4910,N,00908.9258,E,1,06,2.3,178.4,M,,,,0000*05
$GPGSA,A,3,15,26,12,18,22,27,,,,,,,3.6,2.3,2.8*33
$GPGSV,3,1,09,27,78,356,39,26,66,282,41,15,46,173,36,12,40,236,39*77
$GPGSV,3,2,09,17,38,067,16,18,21,263,23,22,17,299,32,30,07,238,*7E
$GPGSV,3,3,09,28,06,054,*4D
$GPRMC,190253.695,A,4529.4910,N,00908.9258,E,17.83,302.93,090410,,,A*53
$GPGGA,190254.695,4529.4938,N,00908.9191,E,1,05,2.4,179.7,M,,,,0000*08
$GPGSA,A,3,15,26,12,22,27,,,,,,,,3.7,2.4,2.8*3C
$GPGSV,3,1,09,27,78,356,39,26,66,282,40,15,46,173,35,12,40,236,39*75
$GPGSV,3,2,09,17,38,067,23,18,21,263,24,22,17,299,31,30,07,238,*7C
$GPGSV,3,3,09,28,06,054,*4D
$GPRMC,190254.695,A,4529.4938,N,00908.9191,E,17.13,302.06,090410,,,A*5D
$GPGGA,190255.694,4529.4965,N,00908.9133,E,1,05,2.4,180.3,M,,,,0000*0A
$GPGSA,A,3,15,26,12,22,27,,,,,,,,3.7,2.4,2.8*3C
$GPGSV,3,1,09,27,78,356,39,26,66,282,41,15,46,173,34,12,40,236,33*7F
$GPGSV,3,2,09,17,38,067,19,18,21,263,26,22,17,299,33,30,07,238,*75
$GPGSV,3,3,09,28,06,054,*4D
$GPRMC,190255.694,A,4529.4965,N,00908.9133,E,16.09,304.33,090410,,,A*57
$GPGGA,190256.694,4529.4989,N,00908.9081,E,1,05,3.2,180.5,M,,,,0000*02
$GPGSA,A,3,15,26,12,18,27,,,,,,,,5.6,3.2,4.6*3D
$GPGSV,3,1,09,27,78,356,38,26,66,282,40,15,46,173,32,12,40,236,34*7E
$GPGSV,3,2,09,17,38,067,20,18,21,263,38,22,17,299,31,30,07,238,*72
$GPGSV,3,3,09,28,06,054,*4D
$GPRMC,190256.694,A,4529.4989,N,00908.9081,E,15.08,302.82,090410,,,A*50
$GPGGA,190257.694,4529.5012,N,00908.9033,E,1,07,1.3,180.9,M,,,,0000*0D
$GPGSA,A,3,15,26,17,12,18,22,27,,,,,,2.3,1.3,1.9*30
$GPGSV,3,1,09,27,78,356,38,26,66,282,41,15,46,173,32,12,40,236,35*7E
$GPGSV,3,2,09,17,38,067,20,18,21,263,39,22,17,299,35,30,07,238,*77
$GPGSV,3,3,09,28,06,054,*4D
$GPRMC,190257.694,A,4529.5012,N,00908.9033,E,14.15,305.53,090410,,,A*54
$GPGGA,190258.694,4529.5036,N,00908.8985,E,1,07,1.3,182.2,M,,,,0000*08
$GPGSA,A,3,15,26,17,12,18,22,27,,,,,,2.3,1.3,1.9*30
$GPGSV,3,1,09,27,78,356,38,26,66,282,42,15,46,173,41,12,40,236,33*7F
$GPGSV,3,2,09,17,38,067,25,18,21,263,39,22,17,299,29,30,07,238,*7F
$GPGSV,3,3,09,28,06,054,*4D
$GPRMC,190258.694,A,4529.5036,N,00908.8985,E,14.00,308.83,090410,,,A*5C
$GPGGA,190259.694,4529.5059,N,00908.8941,E,1,07,1.3,182.1,M,,,,0000*0B
$GPGSA,A,3,15,26,17,12,18,22,27,,,,,,2.3,1.3,1.9*30
$GPGSV,3,1,09,27,78,356,39,26,66,282,41,15,46,173,31,12,40,236,32*7B
$GPGSV,3,2,09,17,38,067,24,18,21,263,41,22,17,299,32,30,07,238,*7B
$GPGSV,3,3,09,28,06,054,*4D
$GPRMC,190259.694,A,4529.5059,N,00908.8941,E,11.73,306.47,090410,,,A*5B
$GPGGA,190300.694,4529.5076,N,00908.8906,E,1,07,1.3,183.2,M,,,,0000*0A
$GPGSA,A,3,15,26,17,12,18,22,27,,,,,,2.3,1.3,1.9*30
$GPGSV,3,1,09,27,78,356,39,26,66,282,41,15,46,173,16,12,40,236,39*75
$GPGSV,3,2,09,17,38,067,20,18,21,263,39,22,17,299,31,30,07,238,*73
$GPGSV,3,3,09,28,06,054,*4D
$GPRMC,190300.694,A,4529.5076,N,00908.8906,E,8.96,307.34,090410,,,A*6E
$GPGGA,190301.694,4529.5085,N,00908.8878,E,1,07,1.3,185.2,M,,,,0000*09
$GPGSA,A,3,15,26,17,12,18,22,27,,,,,,2.3,1.3,1.9*30
$GPGSV,3,1,09,27,78,356,38,26,66,282,41,15,46,173,20,12,40,236,41*7E
$GPGSV,3,2,09,17,38,067,22,18,21,263,37,22,17,299,32,30,07,238,*7C
$GPGSV,3,3,09,28,06,054,*4D
$GPRMC,190301.694,A,4529.5085,N,00908.8878,E,6.64,306.20,090410,,,A*6C
$GPGGA,190302.694,4529.5091,N,00908.8862,E,1,07,1.3,188.2,M,,,,0000*09
$GPGSA,A,3,15,26,17,12,18,22,27,,,,,,2.3,1.3,1.9*30
$GPGSV,3,1,09,27,78,356,38,26,66,282,41,15,46,173,17,12,40,236,41*7A
$GPGSV,3,2,09,17,38,067,22,18,21,263,39,22,17,299,30,30,07,238,*70
$GPGSV,3,3,09,28,06,054,*4D
$GPRMC,190302.694,A,4529.5091,N,00908.8862,E,3.88,302.85,090410,,,A*6D
$GPGGA,190303.694,4529.5093,N,00908.8851,E,1,07,1.3,190.3,M,,,,0000*02
$GPGSA,A,3,15,26,17,12,18,22,27,,,,,,2.3,1.3,1.9*30
$GPGSV,3,1,09,27,78,356,38,26,66,282,41,15,46,173,17,12,40,236,32*7E
$GPGSV,3,2,09,17,38,067,20,18,21,263,39,22,17,299,28,30,07,238,*7B
$GPGSV,3,3,09,28,06,054,*4D
$GPRMC,190303.694,A,4529.5093,N,00908.8851,E,2.85,295.82,090410,,,A*6A
$GPGGA,190304.694,4529.5096,N,00908.8845,E,1,06,1.8,191.6,M,,,,0000*0B
$GPGSA,A,3,26,17,12,18,22,27,,,,,,,2.6,1.8,1.9*3A
$GPGSV,3,1,09,27,78,356,39,26,66,282,41,15,46,173,14,12,40,236,37*79
$GPGSV,3,2,09,17,38,067,20,18,21,263,39,22,17,299,22,30,07,238,*71
$GPGSV,3,3,09,28,06,054,*4D
$GPRMC,190304.694,A,4529.5096,N,00908.8845,E,1.98,291.33,090410,,,A*6C
$GPGGA,190305.694,4529.5098,N,00908.8838,E,1,07,1.3,192.0,M,,,,0000*01
$GPGSA,A,3,15,26,17,12,18,22,27,,,,,,2.3,1.3,1.9*30
$GPGSV,3,1,09,27,78,356,38,26,66,282,40,15,46,173,15,12,40,236,35*7A
$GPGSV,3,2,09,17,38,067,20,18,21,263,41,22,17,299,24,30,07,238,*78
$GPGSV,3,3,09,28,06,054,*4D
$GPRMC,190305.694,A,4529.5098,N,00908.8838,E,0.00,,090410,,,A*7D
$GPGGA,190306.694,4529.5098,N,00908.8838,E,1,07,1.3,192.0,M,,,,0000*02
$GPGSA,A,3,15,26,17,12,18,22,27,,,,,,2.3,1.3,1.9*30
$GPGSV,3,1,09,27,78,356,38,26,66,282,39,15,46,173,15,12,40,236,33*72
$GPGSV,3,2,09,17,38,067,19,18,21,263,43,22,17,299,27,30,07,238,*73
$GPGSV,3,3,09,28,06,054,*4D
$GPRMC,190306.694,A,4529.5098,N,00908.8838,E,0.00,,090410,,,A*7E
$GPGGA,190307.694,4529.5098,N,00908.8838,E,1,07,1.3,192.0,M,,,,0000*03
$GPGSA,A,3,15,26,17,12,18,22,27,,,,,,2.3,1.3,1.9*30
$GPGSV,3,1,09,27,78,356,39,26,66,282,39,15,46,173,16,12,40,236,33*70
$GPGSV,3,2,09,17,38,067,21,18,21,263,43,22,17,299,25,30,07,238,*7A
$GPGSV,3,3,09,28,06,054,*4D
$GPRMC,190307.694,A,4529.5098,N,00908.8838,E,0.00,,090410,,,A*7F
$GPGGA,190308.694,4529.5098,N,00908.8838,E,1,07,1.3,192.0,M,,,,0000*0C
$GPGSA,A,3,15,26,17,12,18,22,27,,,,,,2.3,1.3,1.9*30
$GPGSV,3,1,09,27,78,356,39,26,66,282,40,15,46,173,15,12,40,236,33*7D
$GPGSV,3,2,09,17,38,067,18,18,21,263,43,22,17,299,26,30,07,238,*73
$GPGSV,3,3,09,28,06,054,*4D
$GPRMC,190308.694,A,4529.5098,N,00908.8838,E,0.00,,090410,,,A*70
$GPGGA,190309.694,4529.5098,N,00908.8838,E,1,06,1.8,192.0,M,,,,0000*07
$GPGSA,A,3,26,17,12,18,22,27,,,,,,,2.7,1.8,1.9*3B
$GPGSV,3,1,09,27,78,356,38,26,66,282,39,15,46,173,14,12,40,236,33*73
$GPGSV,3,2,09,17,38,067,18,18,21,263,43,22,17,299,24,30,07,238,*71
$GPGSV,3,3,09,28,06,054,*4D
$GPRMC,190309.694,A,4529.5098,N,00908.8838,E,0.00,,090410,,,A*71
$GPGGA,190310.694,4529.5098,N,00908.8838,E,1,07,1.3,192.0,M,,,,0000*05
$GPGSA,A,3,15,26,17,12,18,22,27,,,,,,2.3,1.3,1.9*30
$GPGSV,3,1,09,27,78,356,39,26,66,282,39,15,46,173,15,12,40,236,33*73
$GPGSV,3,2,09,17,38,067,18,18,21,263,43,22,17,299,25,30,07,238,*70
$GPGSV,3,3,09,28,06,054,*4D
$GPRMC,190310.694,A,4529.5098,N,00908.8838,E,0.00,,090410,,,A*79
$GPGGA,190311.694,4529.5098,N,00908.8838,E,1,06,1.8,192.0,M,,,,0000*0E
$GPGSA,A,3,26,17,12,18,22,27,,,,,,,2.7,1.8,1.9*3B
$GPGSV,3,1,09,27,78,356,39,26,66,282,39,15,46,173,11,12,40,236,33*77
$GPGSV,3,2,09,17,38,067,15,18,21,263,43,22,17,299,26,30,07,238,*7E
$GPGSV,3,3,09,28,06,054,*4D
$GPRMC,190311.694,A,4529.5098,N,00908.8838,E,0.00,,090410,,,A*78
$GPGGA,190312.693,4529.5098,N,00908.8838,E,1,07,1.3,192.0,M,,,,0000*00
$GPGSA,A,3,15,26,17,12,18,22,27,,,,,,2.3,1.3,1.9*30
$GPGSV,3,1,09,27,78,356,38,26,66,282,39,15,46,173,16,12,40,236,32*70
$GPGSV,3,2,09,17,38,067,16,18,21,263,42,22,17,299,26,30,07,238,*7C
$GPGSV,3,3,09,28,06,054,*4D
$GPRMC,190312.693,A,4529.5098,N,00908.8838,E,0.00,,090410,,,A*7C
$GPGGA,190313.693,4529.5098,N,00908.8838,E,1,05,5.3,192.0,M,,,,0000*07
$GPGSA,A,3,26,12,18,22,27,,,,,,,,7.9,5.3,5.8*3C
$GPGSV,3,1,09,27,78,356,39,26,66,282,39,15,46,173,14,12,40,236,31*70
$GPGSV,3,2,09,17,38,067,16,18,21,263,42,22,17,299,27,30,07,238,*7D
$GPGSV,3,3,09,28,06,054,*4D
$GPRMC,190313.693,A,4529.5098,N,00908.8838,E,0.00,,090410,,,A*7D
$GPGGA,190314.693,4529.5098,N,00908.8838,E,1,05,5.3,192.0,M,,,,0000*00
$GPGSA,A,3,26,12,18,22,27,,,,,,,,7.9,5.3,5.8*3C
$GPGSV,3,1,09,27,78,356,38,26,66,282,39,15,46,173,14,12,40,236,32*72
$GPGSV,3,2,09,17,38,067,16,18,21,263,42,22,17,299,26,30,07,238,*7C
$GPGSV,3,3,09,28,06,054,*4D
$GPRMC,190314.693,A,4529.5098,N,00908.8838,E,0.00,,090410,,,A*7A
$GPGGA,190315.693,4529.5098,N,00908.8838,E,1,05,5.3,192.0,M,,,,0000*01
$GPGSA,A,3,26,12,18,22,27,,,,,,,,7.9,5.3,5.8*3C
$GPGSV,3,1,09,27,78,356,38,26,66,282,39,15,46,173,13,12,40,236,33*74
$GPGSV,3,2,09,17,38,067,16,18,21,263,41,22,17,299,27,30,07,238,*7E
$GPGSV,3,3,09,28,06,054,*4D
$GPRMC,190315.693,A,4529.5098,N,00908.8838,E,0.00,,090410,,,A*7B
$GPGGA,190316.693,4529.5098,N,00908.8838,E,1,05,5.3,192.0,M,,,,0000*02
$GPGSA,A,3,26,12,18,22,27,,,,,,,,7.9,5.3,5.8*3C
$GPGSV,3,1,09,27,78,357,39,26,66,281,39,15,46,173,16,12,40,236,31*70
$GPGSV,3,2,09,17,38,067,16,18,21,263,41,22,17,299,26,30,07,238,17*79
$GPGSV,3,3,09,28,06,054,*4D
$GPRMC,190316.693,A,4529.5098,N,00908.8838,E,0.00,,090410,,,A*78
$GPGGA,190317.693,4529.5098,N,00908.8838,E,1,05,5.3,192.0,M,,,,0000*03
$GPGSA,A,3,26,12,18,22,27,,,,,,,,7.9,5.3,5.8*3C
$GPGSV,3,1,09,27,78,357,38,26,66,281,39,15,46,173,13,12,40,236,32*77
$GPGSV,3,2,09,17,38,067,16,18,21,263,41,22,17,299,27,30,07,238,18*77
$GPGSV,3,3,09,28,06,054,*4D
$GPRMC,190317.693,A,4529.5098,N,00908.8838,E,0.00,,090410,,,A*79
$GPGGA,190318.693,4529.5098,N,00908.8838,E,1,05,5.3,192.0,M,,,,0000*0C
$GPGSA,A,3,26,12,18,22,27,,,,,,,,7.9,5.3,5.8*3C
$GPGSV,3,1,09,27,78,357,38,26,66,281,39,15,46,173,14,12,40,236,31*73
$GPGSV,3,2,09,17,38,067,16,18,21,263,41,22,17,299,27,30,07,238,18*77
$GPGSV,3,3,09,28,06,054,*4D
$GPRMC,190318.693,A,4529.5098,N,00908.8838,E,0.00,,090410,,,A*76
$GPGGA,190319.693,4529.5098,N,00908.8838,E,1,06,2.3,192.0,M,,,,0000*09
$GPGSA,A,3,15,26,12,18,22,27,,,,,,,3.6,2.3,2.8*33
$GPGSV,3,1,09,27,78,357,39,26,66,281,39,15,46,173,15,12,40,236,30*72
$GPGSV,3,2,09,17,38,067,16,18,21,263,42,22,17,299,28,30,07,238,18*7B
$GPGSV,3,3,09,28,06,054,*4D
$GPRMC,190319.693,A,4529.5098,N,00908.8838,E,0.00,,090410,,,A*77
$GPGGA,190320.693,4529.5098,N,00908.8838,E,1,05,5.3,192.0,M,,,,0000*07
$GPGSA,A,3,26,12,18,22,27,,,,,,,,7.9,5.3,5.8*3C
$GPGSV,3,1,09,27,78,357,39,26,66,281,39,15,46,173,14,12,40,236,31*72
$GPGSV,3,2,09,17,38,067,16,18,21,263,41,22,17,299,27,30,07,238,18*77
$GPGSV,3,3,09,28,06,054,*4D
$GPRMC,190320.693,A,4529.5098,N,00908.8838,E,0.00,,090410,,,A*7D
$GPGGA,190321.693,4529.5098,N,00908.8838,E,1,06,2.3,192.0,M,,,,0000*02
$GPGSA,A,3,15,26,12,18,22,27,,,,,,,3.6,2.3,2.8*33
$GPGSV,3,1,09,27,78,357,39,26,66,281,39,15,46,173,15,12,40,236,30*72
$GPGSV,3,2,09,17,38,067,16,18,21,263,41,22,17,299,27,30,07,238,31*7C
$GPGSV,3,3,09,28,06,054,*4D
$GPRMC,190321.693,A,4529.5098,N,00908.8838,E,0.00,,090410,,,A*7C
$GPGGA,190322.693,4529.5098,N,00908.8838,E,1,06,2.3,192.0,M,,,,0000*01
$GPGSA,A,3,15,26,12,18,22,27,,,,,,,3.6,2.3,2.8*33
$GPGSV,3,1,09,27,78,357,39,26,66,281,39,15,46,173,15,12,40,236,31*73
$GPGSV,3,2,09,17,38,067,16,18,21,263,41,22,17,299,27,30,07,238,31*7C
$GPGSV,3,3,09,28,06,054,*4D
$GPRMC,190322.693,A,4529.5098,N,00908.8838,E,0.00,,090410,,,A*7F
$GPGGA,190323.693,4529.5098,N,00908.8838,E,1,06,2.3,192.0,M,,,,0000*00
$GPGSA,A,3,15,26,12,18,22,27,,,,,,,3.6,2.3,2.8*33
$GPGSV,3,1,09,27,78,357,39,26,66,281,39,15,46,173,15,12,40,236,31*73
$GPGSV,3,2,09,17,38,067,16,18,21,263,41,22,17,299,28,30,07,238,31*73
$GPGSV,3,3,09,28,06,054,*4D
$GPRMC,190323.693,A,4529.5098,N,00908.8838,E,0.00,,090410,,,A*7E
$GPGGA,190324.693,4529.5098,N,00908.8838,E,1,06,2.3,192.0,M,,,,0000*07
$GPGSA,A,3,15,26,12,18,22,27,,,,,,,3.6,2.3,2.8*33
$GPGSV,3,1,09,27,78,357,39,26,66,281,39,15,46,173,15,12,40,236,31*73
$GPGSV,3,2,09,17,38,067,16,18,21,263,41,22,17,299,27,30,07,238,31*7C
$GPGSV,3,3,09,28,06,054,*4D
$GPRMC,190324.693,A,4529.5098,N,00908.8838,E,0.00,,090410,,,A*79
$GPGGA,190325.693,4529.5098,N,00908.8838,E,1,05,5.3,192.0,M,,,,0000*02
$GPGSA,A,3,26,12,18,22,27,,,,,,,,7.9,5.3,5.8*3C
$GPGSV,3,1,09,27,78,357,39,26,66,281,39,15,46,173,13,12,40,236,31*75
$GPGSV,3,2,09,17,38,067,16,18,21,263,42,22,17,299,24,30,07,238,32*7F
$GPGSV,3,3,09,28,06,054,*4D
$GPRMC,190325.693,A,4529.5098,N,00908.8838,E,0.00,,090410,,,A*78
$GPGGA,190326.693,4529.5098,N,00908.8838,E,1,06,2.3,192.0,M,,,,0000*05
$GPGSA,A,3,15,26,12,18,22,27,,,,,,,3.6,2.3,2.8*33
$GPGSV,3,1,09,27,78,357,38,26,66,281,39,15,46,173,15,12,40,236,32*71
$GPGSV,3,2,09,17,38,067,,18,21,263,41,22,17,299,24,30,07,238,32*7B
$GPGSV,3,3,09,28,06,054,*4D
$GPRMC,190326.693,A,4529.5098,N,00908.8838,E,0.00,,090410,,,A*7B
$GPGGA,190327.693,4529.5098,N,00908.8838,E,1,05,5.3,192.0,M,,,,0000*00
$GPGSA,A,3,26,12,18,22,27,,,,,,,,7.9,5.3,5.8*3C
$GPGSV,3,1,09,27,78,357,38,26,66,281,39,15,46,173,13,12,40,236,30*75
$GPGSV,3,2,09,17,38,067,,18,21,263,41,22,17,299,25,30,07,238,32*7A
$GPGSV,3,3,09,28,06,054,*4D
$GPRMC,190327.693,A,4529.5098,N,00908.8838,E,0.00,,090410,,,A*7A
$GPGGA,190328.692,4529.5098,N,00908.8838,E,1,06,2.3,192.0,M,,,,0000*0A
$GPGSA,A,3,15,26,12,18,22,27,,,,,,,3.6,2.3,2.8*33
$GPGSV,3,1,09,27,78,357,38,26,66,281,40,15,46,173,15,12,40,236,29*75
$GPGSV,3,2,09,17,38,067,,18,21,263,42,22,17,299,24,30,07,238,32*78
$GPGSV,3,3,09,28,06,054,*4D
$GPRMC,190328.692,A,4529.5098,N,00908.8838,E,0.00,,090410,,,A*74
$GPGGA,190329.692,4529.5098,N,00908.8838,E,1,05,5.3,192.0,M,,,,0000*0F
$GPGSA,A,3,26,12,18,22,27,,,,,,,,7.9,5.3,5.8*3C
$GPGSV,3,1,09,27,78,357,39,26,66,281,40,15,46,173,14,12,40,236,30*7D
$GPGSV,3,2,09,17,38,067,,18,21,263,42,22,17,299,27,30,07,238,33*7A
$GPGSV,3,3,09,28,06,054,*4D
$GPRMC,190329.692,A,4529.5098,N,00908.8838,E,0.00,,090410,,,A*75
$GPGGA,190330.692,4529.5098,N,00908.8838,E,1,04,5.7,192.0,M,,,,0000*02
$GPGSA,A,3,26,12,18,27,,,,,,,,,8.5,5.7,6.4*34
$GPGSV,3,1,09,27,78,357,39,26,66,281,39,15,46,173,13,12,40,236,31*75
$GPGSV,3,2,09,17,38,067,21,18,21,263,41,22,17,299,26,30,07,238,34*7C
$GPGSV,3,3,09,28,06,054,*4D
$GPRMC,190330.692,A,4529.5098,N,00908.8838,E,0.00,,090410,,,A*7D
$GPGGA,190331.692,4529.5098,N,00908.8838,E,1,04,5.7,192.0,M,,,,0000*03
$GPGSA,A,3,26,12,18,27,,,,,,,,,8.5,5.7,6.4*34
$GPGSV,3,1,09,27,78,357,39,26,66,281,39,15,46,173,13,12,40,236,31*75
$GPGSV,3,2,09,17,38,067,19,18,21,263,41,22,17,299,23,30,07,238,34*72
$GPGSV,3,3,09,28,06,054,*4D
$GPRMC,190331.692,A,4529.5098,N,00908.8838,E,0.00,,090410,,,A*7C
$GPGGA,190332.692,4529.5098,N,00908.8838,E,1,04,5.7,192.0,M,,,,0000*00
$GPGSA,A,3,26,12,18,27,,,,,,,,,8.5,5.7,6.4*34
$GPGSV,3,1,09,27,78,357,39,26,66,281,39,15,46,173,13,12,40,236,31*75
$GPGSV,3,2,09,17,38,067,17,18,21,263,41,22,17,299,24,30,07,238,33*7C
$GPGSV,3,3,09,28,06,054,*4D
$GPRMC,190332.692,A,4529.5098,N,00908.8838,E,0.00,,090410,,,A*7F
$GPGGA,190333.692,4529.5098,N,00908.8838,E,1,06,1.8,192.0,M,,,,0000*08
$GPGSA,A,3,26,17,12,18,22,27,,,,,,,2.7,1.8,1.9*3B
$GPGSV,3,1,09,27,78,357,39,26,66,281,39,15,46,173,13,12,40,236,32*76
$GPGSV,3,2,09,17,38,067,18,18,21,263,41,22,17,299,22,30,07,238,34*72
$GPGSV,3,3,09,28,06,054,*4D
$GPRMC,190333.692,A,4529.5098,N,00908.8838,E,0.00,,090410,,,A*7E
$GPGGA,190334.692,4529.5098,N,00908.8838,E,1,07,1.3,192.0,M,,,,0000*05
$GPGSA,A,3,15,26,17,12,18,22,27,,,,,,2.3,1.3,1.9*30
$GPGSV,3,1,09,27,78,357,39,26,66,281,39,15,46,173,15,12,40,236,32*70
$GPGSV,3,2,09,17,38,067,17,18,21,263,41,22,17,299,22,30,07,238,34*7D
$GPGSV,3,3,09,28,06,054,*4D
$GPRMC,190334.692,A,4529.5098,N,00908.8838,E,0.00,,090410,,,A*79
$GPGGA,190335.692,4529.5098,N,00908.8838,E,1,07,1.3,192.0,M,,,,0000*04
$GPGSA,A,3,15,26,17,12,18,22,27,,,,,,2.3,1.3,1.9*30
$GPGSV,3,1,09,27,78,357,39,26,66,281,39,15,46,173,15,12,40,236,32*70
$GPGSV,3,2,09,17,38,067,16,18,21,263,42,22,17,299,23,30,07,238,33*79
$GPGSV,3,3,09,28,06,054,*4D
$GPRMC,190335.692,A,4529.5098,N,00908.8838,E,0.00,,090410,,,A*78
$GPGGA,190336.692,4529.5099,N,00908.8827,E,1,07,1.3,192.2,M,,,,0000*0A
$GPGSA,A,3,15,26,17,12,18,22,27,,,,,,2.3,1.3,1.9*30
$GPGSV,3,1,09,27,78,357,39,26,66,281,40,15,46,173,16,12,40,236,35*7A
$GPGSV,3,2,09,17,38,067,20,18,21,263,39,22,17,299,30,30,07,238,29*79
$GPGSV,3,3,09,28,06,054,*4D
$GPRMC,190336.692,A,4529.5099,N,00908.8827,E,2.25,305.26,090410,,,A*6D
$GPGGA,190337.692,4529.5103,N,00908.8814,E,1,06,1.8,191.8,M,,,,0000*0A
$GPGSA,A,3,26,17,12,18,22,27,,,,,,,2.7,1.8,1.9*3B
$GPGSV,3,1,09,27,78,357,39,26,66,281,40,15,46,173,14,12,40,236,39*74
$GPGSV,3,2,09,17,38,067,22,18,21,263,39,22,17,299,33,30,07,238,31*71
$GPGSV,3,3,09,28,06,054,*4D
$GPRMC,190337.692,A,4529.5103,N,00908.8814,E,4.86,296.74,090410,,,A*6D
$GPGGA,190338.692,4529.5114,N,00908.8796,E,1,07,1.3,190.5,M,,,,0000*00
$GPGSA,A,3,15,26,17,12,18,22,27,,,,,,2.3,1.3,1.9*30
$GPGSV,3,1,09,27,78,357,38,26,66,281,41,15,46,173,15,12,40,236,42*79
$GPGSV,3,2,09,17,38,067,25,18,21,263,39,22,17,299,32,30,07,238,33*75
$GPGSV,3,3,09,28,06,054,*4D
$GPRMC,190338.692,A,4529.5114,N,00908.8796,E,7.89,308.28,090410,,,A*62
$GPGGA,190339.692,4529.5130,N,00908.8778,E,1,06,1.8,189.8,M,,,,0000*08
$GPGSA,A,3,26,17,12,18,22,27,,,,,,,2.7,1.8,1.9*3B
$GPGSV,3,1,09,27,78,357,37,26,66,281,42,15,46,173,14,12,40,236,41*77
$GPGSV,3,2,09,17,38,067,26,18,21,263,35,22,17,299,35,30,07,238,28*77
$GPGSV,3,3,09,28,06,054,*4D
$GPRMC,190339.692,A,4529.5130,N,00908.8778,E,7.23,323.73,090410,,,A*62
$GPGGA,190340.692,4529.5145,N,00908.8770,E,1,06,1.8,191.3,M,,,,0000*0E
$GPGSA,A,3,26,17,12,18,22,27,,,,,,,2.7,1.8,1.9*3B
$GPGSV,3,1,09,27,78,357,38,26,66,281,41,15,46,173,14,12,40,236,40*7A
$GPGSV,3,2,09,17,38,067,29,18,21,263,35,22,17,299,39,30,07,238,21*7D
$GPGSV,3,3,09,28,06,054,*4D
$GPRMC,190340.692,A,4529.5145,N,00908.8770,E,6.60,345.67,090410,,,A*65
$GPGGA,190341.692,4529.5168,N,00908.8775,E,1,06,1.8,191.4,M,,,,0000*02
$GPGSA,A,3,26,17,12,18,22,27,,,,,,,2.7,1.8,1.9*3B
$GPGSV,3,1,09,27,78,357,39,26,66,281,38,15,46,173,14,12,40,236,36*74
$GPGSV,3,2,09,17,38,067,30,18,21,263,36,22,17,299,38,30,07,238,21*77
$GPGSV,3,3,09,28,06,054,*4D
$GPRMC,190341.692,A,4529.5168,N,00908.8775,E,9.08,10.68,090410,,,A*53
$GPGGA,190342.692,4529.5195,N,00908.8785,E,1,06,1.8,192.0,M,,,,0000*0B
$GPGSA,A,3,26,17,12,18,22,27,,,,,,,2.7,1.8,1.9*3B
$GPGSV,3,1,09,27,78,357,40,26,66,281,27,15,46,173,13,12,40,236,28*7C
$GPGSV,3,2,09,17,38,067,37,18,21,263,33,22,17,299,35,30,07,238,23*7A
$GPGSV,3,3,09,28,06,054,*4D
$GPRMC,190342.692,A,4529.5195,N,00908.8785,E,10.30,22.06,090410,,,A*67
$GPGGA,190343.692,4529.5223,N,00908.8801,E,1,06,1.8,193.0,M,,,,0000*06
$GPGSA,A,3,26,17,12,18,22,27,,,,,,,2.7,1.8,1.9*3B
$GPGSV,3,1,09,27,78,357,40,26,66,281,28,15,46,173,13,12,40,236,33*79
$GPGSV,3,2,09,17,38,067,34,18,21,263,37,22,17,299,25,30,07,238,23*7C
$GPGSV,3,3,09,28,06,054,*4D
$GPRMC,190343.692,A,4529.5223,N,00908.8801,E,11.04,25.18,090410,,,A*65
$GPGGA,190344.692,4529.5254,N,00908.8815,E,1,07,1.3,193.9,M,,,,0000*07
$GPGSA,A,3,15,26,17,12,18,22,27,,,,,,2.3,1.3,1.9*30
$GPGSV,3,1,09,27,78,357,40,26,66,281,30,15,46,173,15,12,40,236,26*72
$GPGSV,3,2,09,17,38,067,36,18,21,263,26,22,17,299,26,30,07,238,23*7D
$GPGSV,3,3,09,28,06,054,*4D
$GPRMC,190344.692,A,4529.5254,N,00908.8815,E,12.15,19.35,090410,,,A*64
$GPGGA,190345.691,4529.5293,N,00908.8790,E,1,06,1.8,205.0,M,,,,0000*03
$GPGSA,A,3,26,17,12,18,22,27,,,,,,,2.7,1.8,1.9*3B
$GPGSV,3,1,09,27,78,357,40,26,66,281,33,15,46,173,13,12,40,236,28*79
$GPGSV,3,2,09,17,38,067,37,18,21,263,26,22,17,299,26,30,07,238,22*7D
$GPGSV,3,3,09,28,06,054,*4D
$GPRMC,190345.691,A,4529.5293,N,00908.8790,E,12.77,14.38,090410,,,A*6B
$GPGGA,190346.691,4529.5329,N,00908.8797,E,1,06,1.8,206.9,M,,,,0000*0D
$GPGSA,A,3,26,17,12,18,22,27,,,,,,,2.7,1.8,1.9*3B
$GPGSV,3,1,09,27,78,357,39,26,66,281,35,15,46,173,14,12,40,236,27*79
$GPGSV,3,2,09,17,38,067,30,18,21,263,25,22,17,299,24,30,07,238,21*78
$GPGSV,3,3,09,28,06,054,*4D
$GPRMC,190346.691,A,4529.5329,N,00908.8797,E,12.81,7.07,090410,,,A*58
$GPGGA,190347.691,4529.5366,N,00908.8803,E,1,07,1.3,207.4,M,,,,0000*03
$GPGSA,A,3,15,26,17,12,18,22,27,,,,,,2.3,1.3,1.9*30
$GPGSV,3,1,09,27,78,357,41,26,66,281,33,15,46,173,16,12,40,236,26*73
$GPGSV,3,2,09,17,38,067,28,18,21,263,23,22,17,299,24,30,07,238,20*76
$GPGSV,3,3,09,28,06,054,*4D
$GPRMC,190347.691,A,4529.5366,N,00908.8803,E,13.38,5.09,090410,,,A*5F
$GPGGA,190348.691,4529.5390,N,00908.8810,E,1,07,1.3,208.1,M,,,,0000*0D
$GPGSA,A,3,15,26,17,12,18,22,27,,,,,,2.3,1.3,1.9*30
$GPGSV,3,1,09,27,78,358,42,26,66,281,35,15,45,173,15,12,40,236,29*76
$GPGSV,3,2,09,17,38,066,35,18,21,263,24,22,17,298,27,30,07,238,24*7A
$GPGSV,3,3,09,28,06,054,*4D
$GPRMC,190348.691,A,4529.5390,N,00908.8810,E,10.30,8.28,090410,,,A*5E
$GPGGA,190349.691,4529.5422,N,00908.8820,E,1,06,1.8,207.0,M,,,,0000*05
$GPGSA,A,3,26,17,12,18,22,27,,,,,,,2.7,1.8,1.9*3B
$GPGSV,3,1,09,27,78,358,40,26,66,281,34,15,45,173,13,12,40,236,27*7D
$GPGSV,3,2,09,17,38,066,30,18,21,263,26,22,17,298,32,30,07,238,22*7F
$GPGSV,3,3,09,28,06,054,*4D
$GPRMC,190349.691,A,4529.5422,N,00908.8820,E,11.04,8.93,090410,,,A*54
$GPGGA,190350.691,4529.5447,N,00908.8824,E,1,06,1.8,208.3,M,,,,0000*06
$GPGSA,A,3,26,17,12,18,22,27,,,,,,,2.7,1.8,1.9*3B
$GPGSV,3,1,09,27,78,358,40,26,66,281,39,15,45,173,12,12,40,236,23*75
$GPGSV,3,2,09,17,38,066,25,18,21,263,27,22,17,298,29,30,07,238,23*71
$GPGSV,3,3,09,28,06,054,*4D
$GPRMC,190350.691,A,4529.5447,N,00908.8824,E,8.93,3.76,090410,,,A*6D
$GPGGA,190351.691,4529.5467,N,00908.8824,E,1,06,1.8,209.3,M,,,,0000*04
$GPGSA,A,3,26,17,12,18,22,27,,,,,,,2.7,1.8,1.9*3B
$GPGSV,3,1,09,27,78,358,38,26,66,281,42,15,45,173,13,12,40,236,26*72
$GPGSV,3,2,09,17,38,066,25,18,21,263,27,22,17,298,25,30,07,238,21*7F
$GPGSV,3,3,09,28,06,054,*4D
$GPRMC,190351.691,A,4529.5467,N,00908.8824,E,6.76,353.50,090410,,,A*69
$GPGGA,190352.691,4529.5483,N,00908.8824,E,1,06,1.8,210.2,M,,,,0000*04
$GPGSA,A,3,26,17,12,18,22,27,,,,,,,2.7,1.8,1.9*3B
$GPGSV,3,1,09,27,78,358,38,26,66,281,42,15,45,173,13,12,40,236,25*71
$GPGSV,3,2,09,17,38,066,27,18,21,263,25,22,17,298,27,30,07,238,22*7E
$GPGSV,3,3,09,28,06,054,*4D
$GPRMC,190352.691,A,4529.5483,N,00908.8824,E,5.12,351.03,090410,,,A*65
$GPGGA,190353.691,4529.5493,N,00908.8820,E,1,06,1.8,210.8,M,,,,0000*0A
$GPGSA,A,3,26,17,12,18,22,27,,,,,,,2.7,1.8,1.9*3B
$GPGSV,3,1,09,27,78,358,39,26,66,281,42,15,45,173,14,12,40,236,27*75
$GPGSV,3,2,09,17,38,066,33,18,21,263,27,22,17,298,24,30,07,238,23*7B
$GPGSV,3,3,09,28,06,054,*4D
$GPRMC,190353.691,A,4529.5493,N,00908.8820,E,4.02,331.98,090410,,,A*65
$GPGGA,190354.691,4529.5499,N,00908.8790,E,1,07,1.3,216.6,M,,,,0000*01
$GPGSA,A,3,15,26,17,12,18,22,27,,,,,,2.3,1.3,1.9*30
$GPGSV,3,1,09,27,78,358,38,26,66,281,40,15,45,173,15,12,40,236,26*76
$GPGSV,3,2,09,17,38,066,32,18,21,263,35,22,17,298,25,30,07,238,23*78
$GPGSV,3,3,09,28,06,054,*4D
$GPRMC,190354.691,A,4529.5499,N,00908.8790,E,5.02,289.66,090410,,,A*6E
$GPGGA,190355.691,4529.5490,N,00908.8750,E,1,06,1.8,210.0,M,,,,0000*0F
$GPGSA,A,3,26,17,12,18,22,27,,,,,,,2.7,1.8,1.9*3B
$GPGSV,3,1,09,27,78,358,37,26,66,281,41,15,45,173,14,12,40,236,26*79
$GPGSV,3,2,09,17,38,066,28,18,21,263,36,22,17,298,23,30,07,238,20*75
$GPGSV,3,3,09,28,06,054,*4D
$GPRMC,190355.691,A,4529.5490,N,00908.8750,E,8.28,262.52,090410,,,A*6D
$GPGGA,190356.691,4529.5494,N,00908.8701,E,1,07,1.3,203.4,M,,,,0000*00
$GPGSA,A,3,15,26,17,12,18,22,27,,,,,,2.3,1.3,1.9*30
$GPGSV,3,1,09,27,78,358,37,26,66,281,42,15,45,173,15,12,40,236,25*78
$GPGSV,3,2,09,17,38,066,32,18,21,263,38,22,17,298,24,30,07,238,22*75
$GPGSV,3,3,09,28,06,054,*4D
$GPRMC,190356.691,A,4529.5494,N,00908.8701,E,10.64,273.30,090410,,,A*5B
$GPGGA,190357.691,4529.5502,N,00908.8650,E,1,06,1.8,202.4,M,,,,0000*01
$GPGSA,A,3,26,17,12,18,22,27,,,,,,,2.7,1.8,1.9*3B
$GPGSV,3,1,09,27,78,358,38,26,66,281,42,15,45,173,14,12,40,236,39*7B
$GPGSV,3,2,09,17,38,066,28,18,21,263,31,22,17,298,23,30,07,238,21*73
$GPGSV,3,3,09,28,06,054,*4D
$GPRMC,190357.691,A,4529.5502,N,00908.8650,E,12.50,279.96,090410,,,A*52
$GPGGA,190358.691,4529.5507,N,00908.8603,E,1,07,1.3,199.9,M,,,,0000*0B
$GPGSA,A,3,15,26,17,12,18,22,27,,,,,,2.3,1.3,1.9*30
$GPGSV,3,1,09,27,78,358,34,26,66,281,42,15,45,173,15,12,40,236,38*77
$GPGSV,3,2,09,17,38,066,29,18,21,263,35,22,17,298,24,30,07,238,20*70
$GPGSV,3,3,09,28,06,054,*4D
$GPRMC,190358.691,A,4529.5507,N,00908.8603,E,12.78,281.02,090410,,,A*5E
$GPGGA,190359.691,4529.5503,N,00908.8565,E,1,07,1.3,198.2,M,,,,0000*07
$GPGSA,A,3,15,26,17,12,18,22,27,,,,,,2.3,1.3,1.9*30
$GPGSV,3,1,09,27,78,358,33,26,66,281,42,15,45,173,15,12,40,236,41*7E
$GPGSV,3,2,09,17,38,066,29,18,21,263,30,22,17,298,25,30,07,238,23*77
$GPGSV,3,3,09,28,06,054,*4D
$GPRMC,190359.691,A,4529.5503,N,00908.8565,E,11.46,280.70,090410,,,A*52
$GPGGA,190400.691,4529.5503,N,00908.8528,E,1,07,1.3,197.1,M,,,,0000*09
$GPGSA,A,3,15,26,17,12,18,22,27,,,,,,2.3,1.3,1.9*30
$GPGSV,3,1,09,27,78,358,34,26,66,281,41,15,45,173,15,12,40,236,41*7A
$GPGSV,3,2,09,17,38,066,27,18,21,263,29,22,17,298,28,30,07,238,20*7F
$GPGSV,3,3,09,28,06,054,*4D
$GPRMC,190400.691,A,4529.5503,N,00908.8528,E,10.48,284.59,090410,,,A*50
$GPGGA,190401.690,4529.5501,N,00908.8496,E,1,06,1.8,195.6,M,,,,0000*00
$GPGSA,A,3,26,17,12,18,22,27,,,,,,,2.7,1.8,1.9*3B
$GPGSV,3,1,09,27,78,358,34,26,66,281,40,15,45,173,14,12,40,236,41*7A
$GPGSV,3,2,09,17,38,066,23,18,21,263,35,22,17,298,31,30,07,238,23*7D
$GPGSV,3,3,09,28,06,054,*4D
$GPRMC,190401.690,A,4529.5501,N,00908.8496,E,8.62,281.56,090410,,,A*6D
$GPGGA,190402.690,4529.5502,N,00908.8465,E,1,06,1.8,194.1,M,,,,0000*0A
$GPGSA,A,3,26,17,12,18,22,27,,,,,,,2.7,1.8,1.9*3B
$GPGSV,3,1,09,27,78,358,33,26,66,281,41,15,45,173,13,12,40,236,39*74
$GPGSV,3,2,09,17,38,066,21,18,21,263,36,22,17,298,36,30,07,238,23*7B
$GPGSV,3,3,09,28,06,054,*4D
$GPRMC,190402.690,A,4529.5502,N,00908.8465,E,8.52,279.17,090410,,,A*60
$GPGGA,190403.690,4529.5492,N,00908.8443,E,1,06,1.4,199.0,M,,,,0000*07
$GPGSA,A,3,15,26,17,18,22,27,,,,,,,2.3,1.4,1.9*34
$GPGSV,3,1,09,27,78,358,32,26,66,281,41,15,45,173,16,12,40,236,37*7E
$GPGSV,3,2,09,17,38,066,20,18,21,263,35,22,17,298,36,30,07,238,21*7B
$GPGSV,3,3,09,28,06,054,*4D
$GPRMC,190403.690,A,4529.5492,N,00908.8443,E,7.91,281.08,090410,,,A*64
$GPGGA,190404.690,4529.5491,N,00908.8425,E,1,07,1.3,199.8,M,,,,0000*0D
$GPGSA,A,3,15,26,17,12,18,22,27,,,,,,2.3,1.3,1.9*30
$GPGSV,3,1,09,27,78,358,34,26,66,281,41,15,45,173,15,12,40,236,38*74
$GPGSV,3,2,09,17,38,066,23,18,21,263,35,22,17,298,37,30,07,238,31*78
$GPGSV,3,3,09,28,06,054,*4D
$GPRMC,190404.690,A,4529.5491,N,00908.8425,E,6.12,279.47,090410,,,A*66
$GPGGA,190405.690,4529.5491,N,00908.8410,E,1,07,1.3,198.0,M,,,,0000*03
$GPGSA,A,3,15,26,17,12,18,22,27,,,,,,2.3,1.3,1.9*30
$GPGSV,3,1,09,27,78,358,34,26,66,281,42,15,45,173,15,12,40,236,41*79
$GPGSV,3,2,09,17,38,066,21,18,21,263,32,22,17,298,38,30,07,238,35*76
$GPGSV,3,3,09,28,06,054,*4D
$GPRMC,190405.690,A,4529.5491,N,00908.8410,E,4.56,283.75,090410,,,A*67
$GPGGA,190406.690,4529.5493,N,00908.8402,E,1,06,1.8,195.3,M,,,,0000*05
$GPGSA,A,3,26,17,12,18,22,27,,,,,,,2.7,1.8,1.9*3B
$GPGSV,3,1,09,27,78,358,35,26,66,281,42,15,45,173,13,12,40,236,40*7F
$GPGSV,3,2,09,17,38,066,22,18,21,263,35,22,17,298,36,30,07,238,32*7B
$GPGSV,3,3,09,28,06,054,*4D
$GPRMC,190406.690,A,4529.5493,N,00908.8402,E,2.07,291.89,090410,,,A*67
$GPGGA,190407.690,4529.5495,N,00908.8393,E,1,06,1.8,194.6,M,,,,0000*09
$GPGSA,A,3,26,17,12,18,22,27,,,,,,,2.7,1.8,1.9*3B
$GPGSV,3,1,09,27,78,358,35,26,66,281,41,15,45,173,13,12,40,236,40*7C
$GPGSV,3,2,09,17,38,066,22,18,21,263,33,22,17,298,37,30,07,238,32*7C
$GPGSV,3,3,09,28,06,054,*4D
$GPRMC,190407.690,A,4529.5495,N,00908.8393,E,2.56,292.27,090410,,,A*6C
$GPGGA,190408.690,4529.5498,N,00908.8384,E,1,06,1.8,194.3,M,,,,0000*08
$GPGSA,A,3,26,17,12,18,22,27,,,,,,,2.7,1.8,1.9*3B
$GPGSV,3,1,09,27,78,358,34,26,66,281,41,15,45,173,13,12,40,236,40*7D
$GPGSV,3,2,09,17,38,066,24,18,21,263,34,22,17,298,38,30,07,238,30*70
$GPGSV,3,3,09,28,06,054,*4D
$GPRMC,190408.690,A,4529.5498,N,00908.8384,E,0.00,,090410,,,A*7B
$GPGGA,190409.690,4529.5498,N,00908.8384,E,1,05,1.9,194.3,M,,,,0000*0B
$GPGSA,A,3,26,17,12,22,27,,,,,,,,2.9,1.9,2.1*36
$GPGSV,3,1,09,27,78,358,33,26,66,281,41,15,45,173,13,12,40,236,39*74
$GPGSV,3,2,09,17,38,066,23,18,21,263,37,22,17,298,38,30,07,238,32*76
$GPGSV,3,3,09,28,06,054,*4D
$GPRMC,190409.690,A,4529.5498,N,00908.8384,E,0.00,,090410,,,A*7A
$GPGGA,190410.690,4529.5498,N,00908.8384,E,1,06,1.8,194.3,M,,,,0000*01
$GPGSA,A,3,26,17,12,18,22,27,,,,,,,2.7,1.8,1.9*3B
$GPGSV,3,1,09,27,78,358,36,26,66,281,41,15,45,173,13,12,40,236,40*7F
$GPGSV,3,2,09,17,38,066,24,18,21,263,36,22,17,298,36,30,07,238,30*7C
$GPGSV,3,3,09,28,06,054,*4D
$GPRMC,190410.690,A,4529.5498,N,00908.8384,E,0.00,,090410,,,A*72
$GPGGA,190411.690,4529.5498,N,00908.8384,E,1,06,1.8,194.3,M,,,,0000*00
$GPGSA,A,3,26,17,12,18,22,27,,,,,,,2.7,1.8,1.9*3B
$GPGSV,3,1,09,27,78,358,36,26,66,281,41,15,45,173,13,12,40,236,40*7F
$GPGSV,3,2,09,17,38,066,22,18,21,263,36,22,17,298,37,30,07,238,30*7B
$GPGSV,3,3,09,28,06,054,*4D
$GPRMC,190411.690,A,4529.5498,N,00908.8384,E,0.00,,090410,,,A*73
$GPGGA,190412.690,4529.5503,N,00908.8379,E,1,06,1.8,192.6,M,,,,0000*01
$GPGSA,A,3,26,17,12,18,22,27,,,,,,,2.7,1.8,1.9*3B
$GPGSV,3,1,09,27,78,358,36,26,66,281,42,15,45,173,13,12,40,236,41*7D
$GPGSV,3,2,09,17,38,066,22,18,21,263,35,22,17,298,37,30,07,238,32*7A
$GPGSV,3,3,09,28,06,054,*4D
$GPRMC,190412.690,A,4529.5503,N,00908.8379,E,2.06,291.48,090410,,,A*6D
$GPGGA,190413.690,4529.5500,N,00908.8367,E,1,05,3.1,193.0,M,,,,0000*03
$GPGSA,A,3,26,17,12,18,27,,,,,,,,3.8,3.1,2.2*36
$GPGSV,3,1,09,27,78,358,37,26,66,281,41,15,45,173,13,12,40,236,41*7F
$GPGSV,3,2,09,17,38,066,23,18,21,263,35,22,17,298,36,30,07,238,34*7C
$GPGSV,3,3,09,28,06,054,*4D
$GPRMC,190413.690,A,4529.5500,N,00908.8367,E,4.57,264.47,090410,,,A*67
$GPGGA,190414.690,4529.5505,N,00908.8340,E,1,06,1.8,189.9,M,,,,0000*0E
$GPGSA,A,3,26,17,12,18,22,27,,,,,,,2.7,1.8,1.9*3B
$GPGSV,3,1,09,27,78,358,34,26,66,281,39,15,45,173,13,12,40,236,40*72
$GPGSV,3,2,09,17,38,066,22,18,21,263,34,22,17,298,37,30,07,238,31*78
$GPGSV,3,3,09,28,06,054,*4D
$GPRMC,190414.690,A,4529.5505,N,00908.8340,E,8.09,280.23,090410,,,A*6F
$GPGGA,190415.690,4529.5508,N,00908.8312,E,1,06,1.8,188.1,M,,,,0000*0C
$GPGSA,A,3,26,17,12,18,22,27,,,,,,,2.7,1.8,1.9*3B
$GPGSV,3,1,09,27,78,358,33,26,66,281,39,15,45,173,13,12,40,236,41*74
$GPGSV,3,2,09,17,38,066,28,18,21,263,32,22,17,298,37,30,07,238,30*75
$GPGSV,3,3,09,28,06,054,*4D
$GPRMC,190415.690,A,4529.5508,N,00908.8312,E,8.30,283.16,090410,,,A*6B
$GPGGA,190416.690,4529.5512,N,00908.8284,E,1,06,1.8,187.1,M,,,,0000*05
$GPGSA,A,3,26,17,12,18,22,27,,,,,,,2.7,1.8,1.9*3B
$GPGSV,3,1,09,27,78,359,33,26,66,280,41,15,45,173,13,12,40,236,40*7A
$GPGSV,3,2,09,17,37,066,29,18,20,262,32,22,17,298,37,30,07,238,31*7A
$GPGSV,3,3,09,28,05,054,*4E
$GPRMC,190416.690,A,4529.5512,N,00908.8284,E,8.04,282.04,090410,,,A*68
$GPGGA,190417.690,4529.5516,N,00908.8255,E,1,05,1.9,187.0,M,,,,0000*0F
$GPGSA,A,3,17,12,18,22,27,,,,,,,,3.1,1.9,2.4*37
$GPGSV,3,1,09,27,78,359,32,26,66,280,41,15,45,173,13,12,40,236,41*7A
$GPGSV,3,2,09,17,37,066,30,18,20,262,31,22,17,298,36,30,07,238,27*77
$GPGSV,3,3,09,28,05,054,*4E
$GPRMC,190417.690,A,4529.5516,N,00908.8255,E,6.37,278.77,090410,,,A*6E
$GPGGA,190418.689,4529.5515,N,00908.8236,E,1,05,2.0,186.8,M,,,,0000*0D
$GPGSA,A,3,26,17,12,18,22,,,,,,,,3.2,2.0,2.5*3E
$GPGSV,3,1,09,27,78,359,29,26,66,280,37,15,45,173,13,12,40,236,40*70
$GPGSV,3,2,09,17,37,066,29,18,20,262,25,22,17,298,35,30,07,238,27*79
$GPGSV,3,3,09,28,05,054,*4E
$GPRMC,190418.689,A,4529.5515,N,00908.8236,E,4.36,267.56,090410,,,A*61
$GPGGA,190419.689,4529.5514,N,00908.8220,E,1,06,1.9,186.6,M,,,,0000*0D
$GPGSA,A,3,26,17,12,18,22,27,,,,,,,2.7,1.9,1.9*3A
$GPGSV,3,1,09,27,78,359,39,26,66,280,36,15,45,173,,12,40,236,30*75
$GPGSV,3,2,09,17,37,066,37,18,20,262,23,22,17,298,31,30,07,238,31*73
$GPGSV,3,3,09,28,05,054,*4E
$GPRMC,190419.689,A,4529.5514,N,00908.8220,E,4.33,267.61,090410,,,A*67
$GPGGA,190420.689,4529.5499,N,00908.8205,E,1,07,1.3,187.8,M,,,,0000*00
$GPGSA,A,3,15,26,17,12,18,22,27,,,,,,2.3,1.3,1.9*30
$GPGSV,3,1,09,27,78,359,40,26,66,280,41,15,45,173,41,12,40,236,24*7B
$GPGSV,3,2,09,17,37,066,35,18,20,262,23,22,17,298,31,30,07,238,29*78
$GPGSV,3,3,09,28,05,054,*4E
$GPRMC,190420.689,A,4529.5499,N,00908.8205,E,3.81,217.30,090410,,,A*63
$GPGGA,190421.689,4529.5478,N,00908.8195,E,1,07,1.3,188.7,M,,,,0000*04
$GPGSA,A,3,15,26,17,12,18,22,27,,,,,,2.3,1.3,1.9*30
$GPGSV,3,1,09,27,78,359,39,26,66,280,39,15,45,173,43,12,40,236,24*78
$GPGSV,3,2,09,17,37,066,27,18,20,262,24,22,17,298,27,30,07,238,32*71
$GPGSV,3,3,09,28,05,054,*4E
$GPRMC,190421.689,A,4529.5478,N,00908.8195,E,3.53,211.26,090410,,,A*69
$GPGGA,190422.689,4529.5465,N,00908.8194,E,1,07,1.3,187.4,M,,,,0000*06
$GPGSA,A,3,15,26,17,12,18,22,27,,,,,,2.3,1.3,1.9*30
$GPGSV,3,1,09,27,78,359,40,26,66,280,37,15,45,173,43,12,40,236,24*78
$GPGSV,3,2,09,17,37,066,27,18,20,262,23,22,17,298,26,30,07,238,36*73
$GPGSV,3,3,09,28,05,054,*4E
$GPRMC,190422.689,A,4529.5465,N,00908.8194,E,2.30,199.64,090410,,,A*66
$GPGGA,190423.689,4529.5459,N,00908.8192,E,1,07,1.3,187.6,M,,,,0000*0C
$GPGSA,A,3,15,26,17,12,18,22,27,,,,,,2.3,1.3,1.9*30
$GPGSV,3,1,09,27,78,359,40,26,66,280,35,15,45,173,43,12,40,236,22*7C
$GPGSV,3,2,09,17,37,066,25,18,20,262,24,22,17,298,25,30,07,238,36*75
$GPGSV,3,3,09,28,05,054,*4E
$GPRMC,190423.689,A,4529.5459,N,00908.8192,E,2.10,185.16,090410,,,A*64
$GPGGA,190424.689,4529.5452,N,00908.8191,E,1,07,1.3,187.5,M,,,,0000*00
$GPGSA,A,3,15,26,17,12,18,22,27,,,,,,2.3,1.3,1.9*30
$GPGSV,3,1,09,27,78,359,41,26,66,280,28,15,45,173,41,12,40,236,23*72
$GPGSV,3,2,09,17,37,066,26,18,20,262,25,22,17,298,22,30,07,238,38*7E
$GPGSV,3,3,09,28,05,054,*4E
$GPRMC,190424.689,A,4529.5452,N,00908.8191,E,2.28,187.97,090410,,,A*6B
$GPGGA,190425.689,4529.5443,N,00908.8188,E,1,07,1.3,187.0,M,,,,0000*0C
$GPGSA,A,3,15,26,17,12,18,22,27,,,,,,2.3,1.3,1.9*30
$GPGSV,3,1,09,27,78,359,42,26,66,280,26,15,45,173,40,12,40,236,23*7E
$GPGSV,3,2,09,17,37,066,25,18,20,262,22,22,17,298,23,30,07,238,37*74
$GPGSV,3,3,09,28,05,054,*4E
$GPRMC,190425.689,A,4529.5443,N,00908.8188,E,2.59,205.96,090410,,,A*6C
$GPGGA,190426.689,4529.5437,N,00908.8181,E,1,07,1.3,187.3,M,,,,0000*06
$GPGSA,A,3,15,26,17,12,18,22,27,,,,,,2.3,1.3,1.9*30
$GPGSV,3,1,09,27,78,359,41,26,66,280,27,15,45,173,38,12,40,236,28*78
$GPGSV,3,2,09,17,37,066,22,18,20,262,26,22,17,298,22,30,07,238,38*79
$GPGSV,3,3,09,28,05,054,*4E
$GPRMC,190426.689,A,4529.5437,N,00908.8181,E,3.14,216.71,090410,,,A*66
$GPGGA,190427.689,4529.5430,N,00908.8174,E,1,07,1.3,187.1,M,,,,0000*08
$GPGSA,A,3,15,26,17,12,18,22,27,,,,,,2.3,1.3,1.9*30
$GPGSV,3,1,09,27,78,359,40,26,66,280,37,15,45,173,36,12,40,236,32*7D
$GPGSV,3,2,09,17,37,066,27,18,20,262,23,22,17,298,24,30,07,238,32*75
$GPGSV,3,3,09,28,05,054,*4E
$GPRMC,190427.689,A,4529.5430,N,00908.8174,E,0.00,,090410,,,A*71
$GPGGA,190428.689,4529.5430,N,00908.8174,E,1,07,1.3,187.1,M,,,,0000*07
$GPGSA,A,3,15,26,17,12,18,22,27,,,,,,2.3,1.3,1.9*30
$GPGSV,3,1,09,27,78,359,38,26,66,280,33,15,45,173,36,12,40,236,31*75
$GPGSV,3,2,09,17,37,066,27,18,20,262,27,22,17,298,27,30,07,238,36*76
$GPGSV,3,3,09,28,05,054,*4E
$GPRMC,190428.689,A,4529.5430,N,00908.8174,E,0.00,,090410,,,A*7E
$GPGGA,190429.689,4529.5430,N,00908.8174,E,1,07,1.3,187.1,M,,,,0000*06
$GPGSA,A,3,15,26,17,12,18,22,27,,,,,,2.3,1.3,1.9*30
$GPGSV,3,1,09,27,78,359,37,26,66,280,28,15,45,173,37,12,40,236,33*73
$GPGSV,3,2,09,17,37,066,25,18,20,262,25,22,17,298,24,30,07,238,38*7B
$GPGSV,3,3,09,28,05,054,*4E
$GPRMC,190429.689,A,4529.5430,N,00908.8174,E,0.00,,090410,,,A*7F
$GPGGA,190430.689,4529.5430,N,00908.8174,E,1,07,1.3,187.1,M,,,,0000*0E
$GPGSA,A,3,15,26,17,12,18,22,27,,,,,,2.3,1.3,1.9*30
$GPGSV,3,1,09,27,78,359,36,26,66,280,26,15,45,173,37,12,40,236,31*7E
$GPGSV,3,2,09,17,37,066,26,18,20,262,25,22,17,298,24,30,07,238,35*75
$GPGSV,3,3,09,28,05,054,*4E
$GPRMC,190430.689,A,4529.5430,N,00908.8174,E,0.00,,090410,,,A*77
$GPGGA,190431.689,4529.5430,N,00908.8174,E,1,07,1.3,187.1,M,,,,0000*0F
$GPGSA,A,3,15,26,17,12,18,22,27,,,,,,2.3,1.3,1.9*30
$GPGSV,3,1,09,27,78,359,36,26,66,280,39,15,45,173,33,12,40,236,36*73
$GPGSV,3,2,09,17,37,066,19,18,20,262,29,22,17,298,22,30,07,238,37*71
$GPGSV,3,3,09,28,05,054,*4E
$GPRMC,190431.689,A,4529.5430,N,00908.8174,E,0.00,,090410,,,A*76
$GPGGA,190432.689,4529.5430,N,00908.8174,E,1,07,1.3,187.1,M,,,,0000*0C
$GPGSA,A,3,15,26,17,12,18,22,27,,,,,,2.3,1.3,1.9*30
$GPGSV,3,1,09,27,78,359,36,26,66,280,39,15,45,173,34,12,40,236,34*76
$GPGSV,3,2,09,17,37,066,29,18,20,262,25,22,17,298,24,30,07,238,37*78
$GPGSV,3,3,09,28,05,054,*4E
$GPRMC,190432.689,A,4529.5430,N,00908.8174,E,0.00,,090410,,,A*75
$GPGGA,190433.689,4529.5430,N,00908.8174,E,1,07,1.3,187.1,M,,,,0000*0D
$GPGSA,A,3,15,26,17,12,18,22,27,,,,,,2.3,1.3,1.9*30
$GPGSV,3,1,09,27,78,359,34,26,66,280,30,15,45,173,33,12,40,236,34*7A
$GPGSV,3,2,09,17,37,066,28,18,20,262,25,22,17,298,27,30,07,238,35*78
$GPGSV,3,3,09,28,05,054,*4E
$GPRMC,190433.689,A,4529.5430,N,00908.8174,E,0.00,,090410,,,A*74
$GPGGA,190434.688,4529.5430,N,00908.8174,E,1,07,1.3,187.1,M,,,,0000*0B
$GPGSA,A,3,15,26,17,12,18,22,27,,,,,,2.3,1.3,1.9*30
$GPGSV,3,1,09,27,78,359,36,26,66,280,32,15,45,173,35,12,40,236,33*7B
$GPGSV,3,2,09,17,37,066,28,18,20,262,24,22,17,298,28,30,07,238,34*77
$GPGSV,3,3,09,28,05,054,*4E
$GPRMC,190434.688,A,4529.5430,N,00908.8174,E,0.00,,090410,,,A*72
$GPGGA,190435.688,4529.5430,N,00908.8174,E,1,07,1.3,187.1,M,,,,0000*0A
$GPGSA,A,3,15,26,17,12,18,22,27,,,,,,2.3,1.3,1.9*30
$GPGSV,3,1,09,27,78,359,36,26,66,280,33,15,45,173,35,12,40,236,33*7A
$GPGSV,3,2,09,17,37,066,29,18,20,262,22,22,17,298,27,30,07,238,36*7D
$GPGSV,3,3,09,28,05,054,*4E
$GPRMC,190435.688,A,4529.5430,N,00908.8174,E,0.00,,090410,,,A*73
$GPGGA,190436.688,4529.5430,N,00908.8174,E,1,07,1.3,187.1,M,,,,0000*09
$GPGSA,A,3,15,26,17,12,18,22,27,,,,,,2.3,1.3,1.9*30
$GPGSV,3,1,09,27,78,359,35,26,66,280,34,15,45,173,35,12,40,236,32*7F
$GPGSV,3,2,09,17,37,066,28,18,20,262,22,22,17,298,26,30,07,238,35*7E
$GPGSV,3,3,09,28,05,054,*4E
$GPRMC,190436.688,A,4529.5430,N,00908.8174,E,0.00,,090410,,,A*70
$GPGGA,190437.688,4529.5430,N,00908.8174,E,1,07,1.3,187.1,M,,,,0000*08
$GPGSA,A,3,15,26,17,12,18,22,27,,,,,,2.3,1.3,1.9*30
$GPGSV,3,1,09,27,78,359,37,26,66,280,33,15,45,173,35,12,40,236,34*7C
$GPGSV,3,2,09,17,37,066,26,18,20,262,22,22,17,298,29,30,07,238,37*7D
$GPGSV,3,3,09,28,05,054,*4E
$GPRMC,190437.688,A,4529.5430,N,00908.8174,E,0.00,,090410,,,A*71
$GPGGA,190438.688,4529.5430,N,00908.8174,E,1,07,1.3,187.1,M,,,,0000*07
$GPGSA,A,3,15,26,17,12,18,22,27,,,,,,2.3,1.3,1.9*30
$GPGSV,3,1,09,27,78,359,37,26,66,280,34,15,45,173,36,12,40,236,34*78
$GPGSV,3,2,09,17,37,066,27,18,20,262,26,22,17,298,29,30,07,238,37*78
$GPGSV,3,3,09,28,05,054,*4E
$GPRMC,190438.688,A,4529.5430,N,00908.8174,E,0.00,,090410,,,A*7E
$GPGGA,190439.688,4529.5430,N,00908.8174,E,1,07,1.3,187.1,M,,,,0000*06
$GPGSA,A,3,15,26,17,12,18,22,27,,,,,,2.3,1.3,1.9*30
$GPGSV,3,1,09,27,78,359,37,26,66,280,36,15,45,173,38,12,40,236,35*75
$GPGSV,3,2,09,17,37,066,26,18,20,262,26,22,17,298,28,30,07,238,37*78
$GPGSV,3,3,09,28,05,054,*4E
$GPRMC,190439.688,A,4529.5430,N,00908.8174,E,0.00,,090410,,,A*7F
$GPGGA,190440.688,4529.5430,N,00908.8174,E,1,07,1.3,187.1,M,,,,0000*08
$GPGSA,A,3,15,26,17,12,18,22,27,,,,,,2.3,1.3,1.9*30
$GPGSV,3,1,09,27,78,359,37,26,66,280,35,15,45,173,36,12,40,236,34*79
$GPGSV,3,2,09,17,37,066,25,18,20,262,21,22,17,298,28,30,07,238,37*7C
$GPGSV,3,3,09,28,05,054,*4E
$GPRMC,190440.688,A,4529.5430,N,00908.8174,E,0.00,,090410,,,A*71
$GPGGA,190441.688,4529.5430,N,00908.8174,E,1,07,1.3,187.1,M,,,,0000*09
$GPGSA,A,3,15,26,17,12,18,22,27,,,,,,2.3,1.3,1.9*30
$GPGSV,3,1,09,27,78,359,37,26,66,280,34,15,45,173,37,12,40,236,33*7E
$GPGSV,3,2,09,17,37,066,26,18,20,262,23,22,17,298,28,30,07,238,36*7C
$GPGSV,3,3,09,28,05,054,*4E
$GPRMC,190441.688,A,4529.5430,N,00908.8174,E,0.00,,090410,,,A*70
$GPGGA,190442.688,4529.5430,N,00908.8174,E,1,07,1.3,187.1,M,,,,0000*0A
$GPGSA,A,3,15,26,17,12,18,22,27,,,,,,2.3,1.3,1.9*30
$GPGSV,3,1,09,27,78,359,37,26,66,280,35,15,45,173,37,12,40,236,34*78
$GPGSV,3,2,09,17,37,066,28,18,20,262,24,22,17,298,28,30,07,238,37*74
$GPGSV,3,3,09,28,05,054,*4E
$GPRMC,190442.688,A,4529.5430,N,00908.8174,E,0.00,,090410,,,A*73
$GPGGA,190443.688,4529.5430,N,00908.8174,E,1,07,1.3,187.1,M,,,,0000*0B
$GPGSA,A,3,15,26,17,12,18,22,27,,,,,,2.3,1.3,1.9*30
$GPGSV,3,1,09,27,78,359,37,26,66,280,35,15,45,173,36,12,40,236,33*7E
$GPGSV,3,2,09,17,37,066,28,18,20,262,24,22,17,298,29,30,07,238,37*75
$GPGSV,3,3,09,28,05,054,*4E
$GPRMC,190443.688,A,4529.5430,N,00908.8174,E,0.00,,090410,,,A*72
$GPGGA,190444.688,4529.5430,N,00908.8174,E,1,07,1.3,187.1,M,,,,0000*0C
$GPGSA,A,3,15,26,17,12,18,22,27,,,,,,2.3,1.3,1.9*30
$GPGSV,3,1,09,27,78,359,38,26,66,280,34,15,45,173,37,12,40,236,33*71
$GPGSV,3,2,09,17,37,066,28,18,20,262,25,22,17,298,28,30,07,238,37*75
$GPGSV,3,3,09,28,05,054,*4E
$GPRMC,190444.688,A,4529.5430,N,00908.8174,E,0.00,,090410,,,A*75
$GPGGA,190445.688,4529.5430,N,00908.8174,E,1,07,1.3,187.1,M,,,,0000*0D
$GPGSA,A,3,15,26,17,12,18,22,27,,,,,,2.3,1.3,1.9*30
$GPGSV,3,1,09,27,78,359,37,26,66,280,34,15,45,173,36,12,40,236,32*7E
$GPGSV,3,2,09,17,37,066,28,18,20,262,26,22,17,298,27,30,07,238,36*78
$GPGSV,3,3,09,28,05,054,*4E
$GPRMC,190445.688,A,4529.5430,N,00908.8174,E,0.00,,090410,,,A*74
$GPGGA,190446.688,4529.5430,N,00908.8174,E,1,07,1.3,187.1,M,,,,0000*0E
$GPGSA,A,3,15,26,17,12,18,22,27,,,,,,2.3,1.3,1.9*30
$GPGSV,3,1,09,27,78,000,37,26,66,279,34,15,45,173,37,12,40,237,33*76
$GPGSV,3,2,09,17,37,066,28,18,20,262,24,22,17,298,27,30,08,238,37*74
$GPGSV,3,3,09,28,05,054,*4E
$GPRMC,190446.688,A,4529.5430,N,00908.8174,E,0.00,,090410,,,A*77
$GPGGA,190447.688,4529.5430,N,00908.8174,E,1,07,1.3,187.1,M,,,,0000*0F
$GPGSA,A,3,15,26,17,12,18,22,27,,,,,,2.3,1.3,1.9*30
$GPGSV,3,1,09,27,78,000,38,26,66,279,34,15,45,173,37,12,40,237,32*78
$GPGSV,3,2,09,17,37,066,27,18,20,262,26,22,17,298,25,30,08,238,37*7B
$GPGSV,3,3,09,28,05,054,*4E
$GPRMC,190447.688,A,4529.5430,N,00908.8174,E,0.00,,090410,,,A*76
$GPGGA,190448.688,4529.5430,N,00908.8174,E,1,07,1.3,187.1,M,,,,0000*00
$GPGSA,A,3,15,26,17,12,18,22,27,,,,,,2.3,1.3,1.9*30
$GPGSV,3,1,09,27,78,000,37,26,66,279,34,15,45,173,36,12,40,237,31*75
$GPGSV,3,2,09,17,37,066,25,18,20,262,25,22,17,298,26,30,08,238,37*79
$GPGSV,3,3,09,28,05,054,*4E
$GPRMC,190448.688,A,4529.5430,N,00908.8174,E,0.00,,090410,,,A*79
$GPGGA,190449.688,4529.5430,N,00908.8174,E,1,07,1.3,187.1,M,,,,0000*01
$GPGSA,A,3,15,26,17,12,18,22,27,,,,,,2.3,1.3,1.9*30
$GPGSV,3,1,09,27,78,000,37,26,66,279,35,15,45,173,37,12,40,237,31*75
$GPGSV,3,2,09,17,37,066,26,18,20,262,25,22,17,298,24,30,08,238,37*78
$GPGSV,3,3,09,28,05,054,*4E
$GPRMC,190449.688,A,4529.5430,N,00908.8174,E,0.00,,090410,,,A*78
$GPGGA,190450.688,4529.5430,N,00908.8174,E,1,07,1.3,187.1,M,,,,0000*09
$GPGSA,A,3,15,26,17,12,18,22,27,,,,,,2.3,1.3,1.9*30
$GPGSV,3,1,09,27,78,000,38,26,66,279,35,15,45,173,36,12,40,237,31*7B
$GPGSV,3,2,09,17,37,066,24,18,20,262,25,22,17,298,24,30,08,238,37*7A
$GPGSV,3,3,09,28,05,054,*4E
$GPRMC,190450.688,A,4529.5430,N,00908.8174,E,0.00,,090410,,,A*70
$GPGGA,190451.687,4529.5430,N,00908.8174,E,1,07,1.3,187.1,M,,,,0000*07
$GPGSA,A,3,15,26,17,12,18,22,27,,,,,,2.3,1.3,1.9*30
$GPGSV,3,1,09,27,78,000,37,26,66,279,35,15,45,173,37,12,40,237,31*75
$GPGSV,3,2,09,17,37,066,25,18,20,262,25,22,17,298,22,30,08,238,38*72
$GPGSV,3,3,09,28,05,054,*4E
$GPRMC,190451.687,A,4529.5430,N,00908.8174,E,0.00,,090410,,,A*7E
$GPGGA,190452.687,4529.5430,N,00908.8174,E,1,08,1.2,187.1,M,,,,0000*0A
$GPGSA,A,3,15,26,17,12,18,22,27,30,,,,,2.0,1.2,1.5*3D
$GPGSV,3,1,09,27,78,000,37,26,66,279,36,15,45,173,37,12,40,237,31*76
$GPGSV,3,2,09,17,37,066,25,18,20,262,26,22,17,298,20,30,08,238,38*73
$GPGSV,3,3,09,28,05,054,*4E
$GPRMC,190452.687,A,4529.5430,N,00908.8174,E,0.00,,090410,,,A*7D
$GPGGA,190453.687,4529.5430,N,00908.8174,E,1,08,1.2,187.1,M,,,,0000*0B
$GPGSA,A,3,15,26,17,12,18,22,27,30,,,,,2.0,1.2,1.5*3D
$GPGSV,3,1,09,27,78,000,37,26,66,279,36,15,45,173,37,12,40,237,31*76
$GPGSV,3,2,09,17,37,066,26,18,20,262,26,22,17,298,21,30,08,238,38*71
$GPGSV,3,3,09,28,05,054,*4E
$GPRMC,190453.687,A,4529.5430,N,00908.8174,E,0.00,,090410,,,A*7C
$GPGGA,190454.687,4529.5430,N,00908.8174,E,1,08,1.2,187.1,M,,,,0000*0C
$GPGSA,A,3,15,26,17,12,18,22,27,30,,,,,2.0,1.2,1.5*3D
$GPGSV,3,1,09,27,78,000,37,26,66,279,37,15,45,173,37,12,40,237,31*77
$GPGSV,3,2,09,17,37,066,26,18,20,262,26,22,17,298,19,30,08,238,38*7A
$GPGSV,3,3,09,28,05,054,*4E
$GPRMC,190454.687,A,4529.5430,N,00908.8174,E,0.00,,090410,,,A*7B
$GPGGA,190455.687,4529.5430,N,00908.8174,E,1,08,1.2,187.1,M,,,,0000*0D
$GPGSA,A,3,15,26,17,12,18,22,27,30,,,,,2.0,1.2,1.5*3D
$GPGSV,3,1,09,27,78,000,37,26,66,279,36,15,45,173,36,12,40,237,33*75
$GPGSV,3,2,09,17,37,066,24,18,20,262,28,22,17,298,19,30,08,238,38*76
$GPGSV,3,3,09,28,05,054,*4E
$GPRMC,190455.687,A,4529.5430,N,00908.8174,E,0.00,,090410,,,A*7A
$GPGGA,190456.687,4529.5430,N,00908.8174,E,1,08,1.2,187.1,M,,,,0000*0E
$GPGSA,A,3,15,26,17,12,18,22,27,30,,,,,2.0,1.2,1.5*3D
$GPGSV,3,1,09,27,78,000,37,26,66,279,36,15,45,173,38,12,40,237,33*7B
$GPGSV,3,2,09,17,37,066,24,18,20,262,26,22,17,298,20,30,08,238,37*7D
$GPGSV,3,3,09,28,05,054,*4E
$GPRMC,190456.687,A,4529.5430,N,00908.8174,E,0.00,,090410,,,A*79
$GPGGA,190457.687,4529.5430,N,00908.8174,E,1,08,1.2,187.1,M,,,,0000*0F
$GPGSA,A,3,15,26,17,12,18,22,27,30,,,,,2.0,1.2,1.5*3D
$GPGSV,3,1,09,27,78,000,36,26,66,279,36,15,45,173,38,12,40,237,34*7D
$GPGSV,3,2,09,17,37,066,26,18,20,262,24,22,17,298,20,30,08,238,37*7D
$GPGSV,3,3,09,28,05,054,*4E
$GPRMC,190457.687,A,4529.5430,N,00908.8174,E,0.00,,090410,,,A*78
$GPGGA,190458.687,4529.5430,N,00908.8174,E,1,08,1.2,187.1,M,,,,0000*00
$GPGSA,A,3,15,26,17,12,18,22,27,30,,,,,2.0,1.2,1.5*3D
$GPGSV,3,1,09,27,78,000,36,26,66,279,36,15,45,173,37,12,40,237,32*74
$GPGSV,3,2,09,17,37,066,27,18,20,262,28,22,17,298,21,30,08,238,37*71
$GPGSV,3,3,09,28,05,054,*4E
$GPRMC,190458.687,A,4529.5430,N,00908.8174,E,0.00,,090410,,,A*77
$GPGGA,190459.687,4529.5430,N,00908.8174,E,1,08,1.2,187.1,M,,,,0000*01
$GPGSA,A,3,15,26,17,12,18,22,27,30,,,,,2.0,1.2,1.5*3D
$GPGSV,3,1,09,27,78,000,36,26,66,279,35,15,45,173,37,12,40,237,33*76
$GPGSV,3,2,09,17,37,066,25,18,20,262,30,22,17,298,20,30,08,238,38*74
$GPGSV,3,3,09,28,05,054,*4E
$GPRMC,190459.687,A,4529.5430,N,00908.8174,E,0.00,,090410,,,A*76
$GPGGA,190500.687,4529.5430,N,00908.8174,E,1,08,1.2,187.1,M,,,,0000*0C
$GPGSA,A,3,15,26,17,12,18,22,27,30,,,,,2.0,1.2,1.5*3D
$GPGSV,3,1,09,27,78,000,36,26,66,279,35,15,45,173,36,12,40,237,34*70
$GPGSV,3,2,09,17,37,066,23,18,20,262,30,22,17,298,16,30,08,238,38*77
$GPGSV,3,3,09,28,05,054,*4E
$GPRMC,190500.687,A,4529.5430,N,00908.8174,E,0.00,,090410,,,A*7B
$GPGGA,190501.687,4529.5430,N,00908.8174,E,1,08,1.2,187.1,M,,,,0000*0D
$GPGSA,A,3,15,26,17,12,18,22,27,30,,,,,2.0,1.2,1.5*3D
$GPGSV,3,1,09,27,78,000,36,26,66,279,35,15,45,173,36,12,40,237,35*71
$GPGSV,3,2,09,17,37,066,21,18,20,262,30,22,17,298,15,30,08,238,38*76
$GPGSV,3,3,09,28,05,054,*4E
$GPRMC,190501.687,A,4529.5430,N,00908.8174,E,0.00,,090410,,,A*7A
$GPGGA,190502.687,4529.5430,N,00908.8174,E,1,08,1.2,187.1,M,,,,0000*0E
$GPGSA,A,3,15,26,17,12,18,22,27,30,,,,,2.0,1.2,1.5*3D
$GPGSV,3,1,09,27,78,000,36,26,66,279,35,15,45,173,36,12,40,237,34*70
$GPGSV,3,2,09,17,37,066,23,18,20,262,30,22,17,298,16,30,08,238,38*77
$GPGSV,3,3,09,28,05,054,*4E
$GPRMC,190502.687,A,4529.5430,N,00908.8174,E,0.00,,090410,,,A*79
$GPGGA,190503.687,4529.5430,N,00908.8174,E,1,08,1.2,187.1,M,,,,0000*0F
$GPGSA,A,3,15,26,17,12,18,22,27,30,,,,,2.0,1.2,1.5*3D
$GPGSV,3,1,09,27,78,000,35,26,66,279,35,15,45,173,36,12,40,237,35*72
$GPGSV,3,2,09,17,37,066,24,18,20,262,30,22,17,298,15,30,08,238,38*73
$GPGSV,3,3,09,28,05,054,*4E
$GPRMC,190503.687,A,4529.5430,N,00908.8174,E,0.00,,090410,,,A*78
$GPGGA,190504.687,4529.5430,N,00908.8174,E,1,08,1.2,187.1,M,,,,0000*08
$GPGSA,A,3,15,26,17,12,18,22,27,30,,,,,2.0,1.2,1.5*3D
$GPGSV,3,1,09,27,78,000,36,26,66,279,36,15,45,173,36,12,40,237,34*73
$GPGSV,3,2,09,17,37,066,25,18,20,262,29,22,17,298,20,30,08,238,39*7D
$GPGSV,3,3,09,28,05,054,*4E
$GPRMC,190504.687,A,4529.5430,N,00908.8174,E,0.00,,090410,,,A*7F
$GPGGA,190505.687,4529.5430,N,00908.8174,E,1,08,1.2,187.1,M,,,,0000*09
$GPGSA,A,3,15,26,17,12,18,22,27,30,,,,,2.0,1.2,1.5*3D
$GPGSV,3,1,09,27,78,000,36,26,66,279,36,15,45,173,35,12,40,237,33*77
$GPGSV,3,2,09,17,37,066,26,18,20,262,29,22,17,298,22,30,08,238,39*7C
$GPGSV,3,3,09,28,05,054,*4E
$GPRMC,190505.687,A,4529.5430,N,00908.8174,E,0.00,,090410,,,A*7E
$GPGGA,190506.687,4529.5430,N,00908.8174,E,1,08,1.2,187.1,M,,,,0000*0A
$GPGSA,A,3,15,26,17,12,18,22,27,30,,,,,2.0,1.2,1.5*3D
$GPGSV,3,1,09,27,78,000,36,26,66,279,36,15,45,173,35,12,40,237,33*77
$GPGSV,3,2,09,17,37,066,26,18,20,262,29,22,17,298,23,30,08,238,38*7C
$GPGSV,3,3,09,28,05,054,*4E
$GPRMC,190506.687,A,4529.5430,N,00908.8174,E,0.00,,090410,,,A*7D
$GPGGA,190507.686,4529.5430,N,00908.8174,E,1,08,1.2,187.1,M,,,,0000*0A
$GPGSA,A,3,15,26,17,12,18,22,27,30,,,,,2.0,1.2,1.5*3D
$GPGSV,3,1,09,27,78,000,36,26,66,279,37,15,45,173,36,12,40,237,33*75
$GPGSV,3,2,09,17,37,066,26,18,20,262,28,22,17,298,25,30,08,238,39*7A
$GPGSV,3,3,09,28,05,054,*4E
$GPRMC,190507.686,A,4529.5430,N,00908.8174,E,0.00,,090410,,,A*7D
$GPGGA,190508.686,4529.5430,N,00908.8174,E,1,08,1.2,187.1,M,,,,0000*05
$GPGSA,A,3,15,26,17,12,18,22,27,30,,,,,2.0,1.2,1.5*3D
$GPGSV,3,1,09,27,78,000,35,26,66,279,37,15,45,173,36,12,40,237,33*76
$GPGSV,3,2,09,17,37,066,26,18,20,262,29,22,17,298,24,30,08,238,39*7A
$GPGSV,3,3,09,28,05,054,*4E
$GPRMC,190508.686,A,4529.5430,N,00908.8174,E,0.00,,090410,,,A*72
$GPGGA,190509.686,4529.5430,N,00908.8174,E,1,08,1.2,187.1,M,,,,0000*04
$GPGSA,A,3,15,26,17,12,18,22,27,30,,,,,2.0,1.2,1.5*3D
$GPGSV,3,1,09,27,78,000,35,26,66,279,36,15,45,173,36,12,40,237,33*77
$GPGSV,3,2,09,17,37,066,25,18,20,262,29,22,17,298,23,30,08,238,38*7F
$GPGSV,3,3,09,28,05,054,*4E
$GPRMC,190509.686,A,4529.5430,N,00908.8174,E,0.00,,090410,,,A*73
$GPGGA,190510.686,4529.5430,N,00908.8174,E,1,08,1.2,187.1,M,,,,0000*0C
$GPGSA,A,3,15,26,17,12,18,22,27,30,,,,,2.0,1.2,1.5*3D
$GPGSV,3,1,09,27,78,000,35,26,66,279,37,15,45,173,35,12,40,237,33*75
$GPGSV,3,2,09,17,37,066,26,18,20,262,30,22,17,298,24,30,08,238,38*73
$GPGSV,3,3,09,28,05,054,*4E
$GPRMC,190510.686,A,4529.5430,N,00908.8174,E,0.00,,090410,,,A*7B
$GPGGA,190511.686,4529.5430,N,00908.8174,E,1,08,1.2,187.1,M,,,,0000*0D
$GPGSA,A,3,15,26,17,12,18,22,27,30,,,,,2.0,1.2,1.5*3D
$GPGSV,3,1,09,27,78,000,34,26,66,279,36,15,45,173,35,12,40,237,33*75
$GPGSV,3,2,09,17,37,066,26,18,20,262,30,22,17,298,22,30,08,238,38*75
$GPGSV,3,3,09,28,05,054,*4E
$GPRMC,190511.686,A,4529.5430,N,00908.8174,E,0.00,,090410,,,A*7A
$GPGGA,190512.686,4529.5430,N,00908.8174,E,1,08,1.2,187.1,M,,,,0000*0E
$GPGSA,A,3,15,26,17,12,18,22,27,30,,,,,2.0,1.2,1.5*3D
$GPGSV,3,1,09,27,78,000,35,26,66,279,37,15,45,173,35,12,40,237,33*75
$GPGSV,3,2,09,17,37,066,26,18,20,262,29,22,17,298,24,30,08,238,38*7B
$GPGSV,3,3,09,28,05,054,*4E
$GPRMC,190512.686,A,4529.5430,N,00908.8174,E,0.00,,090410,,,A*79
$GPGGA,190513.686,4529.5430,N,00908.8174,E,1,08,1.2,187.1,M,,,,0000*0F
$GPGSA,A,3,15,26,17,12,18,22,27,30,,,,,2.0,1.2,1.5*3D
$GPGSV,3,1,09,27,78,000,35,26,66,279,36,15,45,173,34,12,40,237,32*74
$GPGSV,3,2,09,17,37,066,26,18,20,262,29,22,17,298,22,30,08,238,38*7D
$GPGSV,3,3,09,28,05,054,*4E
$GPRMC,190513.686,A,4529.5430,N,00908.8174,E,0.00,,090410,,,A*78
$GPGGA,190514.686,4529.5429,N,00908.8167,E,1,08,1.2,186.2,M,,,,0000*00
$GPGSA,A,3,15,26,17,12,18,22,27,30,,,,,2.0,1.2,1.5*3D
$GPGSV,3,1,09,27,78,000,35,26,66,279,41,15,45,173,33,12,40,237,30*71
$GPGSV,3,2,09,17,37,066,30,18,20,262,28,22,17,298,23,30,08,238,35*77
$GPGSV,3,3,09,28,05,054,*4E
$GPRMC,190514.686,A,4529.5429,N,00908.8167,E,1.83,222.98,090410,,,A*62
$GPGGA,190515.686,4529.5423,N,00908.8154,E,1,08,1.2,184.8,M,,,,0000*03
$GPGSA,A,3,15,26,17,12,18,22,27,30,,,,,2.0,1.2,1.5*3D
$GPGSV,3,1,09,27,78,000,42,26,66,279,43,15,45,173,35,12,40,237,33*76
$GPGSV,3,2,09,17,37,066,35,18,20,262,25,22,17,298,27,30,08,238,30*7E
$GPGSV,3,3,09,28,05,054,*4E
