$GPGGA,235600.000,5013.476,N,01710.477,E,1,09,0.8,468.770,M,0.0,M,,*64
$GPGGA,235601.000,5013.476,N,01710.479,E,1,09,0.8,471.120,M,0.0,M,,*60
$GPGGA,235602.000,5013.476,N,01710.478,E,1,09,0.8,472.690,M,0.0,M,,*6D
$GPGGA,235603.000,5013.477,N,01710.478,E,1,08,1.0,471.470,M,0.0,M,,*6A
$GPGGA,235604.000,5013.478,N,01710.478,E,1,09,0.8,468.860,M,0.0,M,,*6F
$GPGGA,235605.000,5013.476,N,01710.478,E,1,05,3.6,470.030,M,0.0,M,,*65
$GPGGA,235606.000,5013.474,N,01710.480,E,1,07,1.0,467.810,M,0.0,M,,*69
$GPGGA,235607.000,5013.475,N,01710.481,E,1,07,1.0,466.400,M,0.0,M,,*64
$GPGGA,235608.000,5013.479,N,01710.482,E,1,05,3.8,469.950,M,0.0,M,,*6B
$GPGGA,235609.000,5013.481,N,01710.483,E,1,05,3.8,473.910,M,0.0,M,,*63
$GPGGA,235610.000,5013.481,N,01710.480,E,1,06,2.2,471.780,M,0.0,M,,*65
$GPGGA,235611.000,5013.483,N,01710.481,E,1,07,1.6,480.670,M,0.0,M,,*61
$GPGGA,235612.000,5013.485,N,01710.482,E,1,06,5.2,490.140,M,0.0,M,,*63
$GPGGA,235613.000,5013.487,N,01710.484,E,1,05,2.0,495.520,M,0.0,M,,*67
$GPGGA,235614.000,5013.482,N,01710.482,E,1,07,1.4,483.820,M,0.0,M,,*6C
$GPGGA,235615.000,5013.483,N,01710.481,E,1,08,1.0,484.490,M,0.0,M,,*64
$GPGGA,235616.000,5013.483,N,01710.480,E,1,09,0.8,481.010,M,0.0,M,,*67
$GPGGA,235617.000,5013.483,N,01710.480,E,1,09,0.8,475.550,M,0.0,M,,*6C
$GPGGA,235618.000,5013.482,N,01710.480,E,1,09,0.8,473.170,M,0.0,M,,*62
$GPGGA,235619.000,5013.480,N,01710.482,E,1,09,0.8,470.720,M,0.0,M,,*63
$GPGGA,235620.000,5013.479,N,01710.481,E,1,08,0.8,470.780,M,0.0,M,,*67
$GPGGA,235621.000,5013.480,N,01710.480,E,1,06,2.0,470.840,M,0.0,M,,*66
$GPGGA,235622.000,5013.479,N,01710.479,E,1,07,1.6,468.590,M,0.0,M,,*68
$GPGGA,235623.000,5013.481,N,01710.478,E,1,07,1.6,472.670,M,0.0,M,,*69
$GPGGA,235624.000,5013.480,N,01710.477,E,1,07,1.6,468.990,M,0.0,M,,*6A
$GPGGA,235625.000,5013.478,N,01710.478,E,1,07,1.6,464.550,M,0.0,M,,*6F
$GPGGA,235626.000,5013.477,N,01710.479,E,1,06,2.2,461.170,M,0.0,M,,*67
$GPGGA,235627.000,5013.479,N,01710.478,E,1,07,1.2,464.910,M,0.0,M,,*60
$GPGGA,235628.000,5013.479,N,01710.475,E,1,07,1.2,463.680,M,0.0,M,,*63
$GPGGA,235629.000,5013.479,N,01710.474,E,1,07,1.2,462.730,M,0.0,M,,*68
$GPGGA,235630.000,5013.479,N,01710.479,E,1,07,1.2,464.950,M,0.0,M,,*63
$GPGGA,235631.000,5013.479,N,01710.481,E,1,07,1.0,468.690,M,0.0,M,,*68
$GPGGA,235632.000,5013.479,N,01710.483,E,1,08,1.0,466.940,M,0.0,M,,*6A
$GPGGA,235633.000,5013.479,N,01710.483,E,1,09,0.8,468.290,M,0.0,M,,*6B
$GPGGA,235634.000,5013.480,N,01710.481,E,1,09,0.8,468.700,M,0.0,M,,*64
$GPGGA,235635.000,5013.479,N,01710.480,E,1,08,0.8,468.470,M,0.0,M,,*67
$GPGGA,235636.000,5013.479,N,01710.479,E,1,08,0.8,467.660,M,0.0,M,,*6E
$GPGGA,235637.000,5013.480,N,01710.477,E,1,08,0.8,469.320,M,0.0,M,,*68
$GPGGA,235638.000,5013.480,N,01710.479,E,1,09,0.8,468.520,M,0.0,M,,*6F
$GPGGA,235639.000,5013.481,N,01710.480,E,1,09,0.8,470.420,M,0.0,M,,*61
$GPGGA,235640.000,5013.482,N,01710.482,E,1,09,0.8,472.490,M,0.0,M,,*67
$GPGGA,235641.000,5013.481,N,01710.482,E,1,07,1.2,469.570,M,0.0,M,,*65
$GPGGA,235642.000,5013.480,N,01710.480,E,1,07,1.2,466.710,M,0.0,M,,*6E
$GPGGA,235643.000,5013.481,N,01710.479,E,1,08,1.0,465.290,M,0.0,M,,*6B
$GPGGA,235644.000,5013.481,N,01710.480,E,1,07,1.0,466.020,M,0.0,M,,*6F
$GPGGA,235645.000,5013.482,N,01710.482,E,1,05,2.0,466.760,M,0.0,M,,*6D
$GPGGA,235646.000,5013.483,N,01710.484,E,1,05,2.4,473.840,M,0.0,M,,*64
$GPGGA,235647.000,5013.486,N,01710.483,E,1,05,5.4,482.280,M,0.0,M,,*68
$GPGGA,235648.000,5013.489,N,01710.484,E,1,05,1.6,491.740,M,0.0,M,,*62
$GPGGA,235649.000,5013.490,N,01710.484,E,1,06,1.6,494.320,M,0.0,M,,*6F
$GPGGA,235650.000,5013.488,N,01710.486,E,1,07,1.0,490.150,M,0.0,M,,*6A
$GPGGA,235651.000,5013.486,N,01710.487,E,1,08,0.8,485.270,M,0.0,M,,*67
$GPGGA,235652.000,5013.484,N,01710.486,E,1,07,0.8,480.220,M,0.0,M,,*68
$GPGGA,235653.000,5013.484,N,01710.487,E,1,08,0.8,479.460,M,0.0,M,,*63
$GPGGA,235654.000,5013.483,N,01710.488,E,1,07,1.0,477.980,M,0.0,M,,*67
$GPGGA,235655.000,5013.482,N,01710.487,E,1,07,1.0,475.590,M,0.0,M,,*67
$GPGGA,235656.000,5013.482,N,01710.484,E,1,08,1.0,473.810,M,0.0,M,,*6B
$GPGGA,235657.000,5013.482,N,01710.482,E,1,07,1.0,472.030,M,0.0,M,,*68
$GPGGA,235658.000,5013.481,N,01710.480,E,1,06,1.0,471.460,M,0.0,M,,*65
$GPGGA,235659.000,5013.480,N,01710.479,E,1,08,1.0,471.520,M,0.0,M,,*68
$GPGGA,235700.000,5013.477,N,01710.477,E,1,09,0.8,467.060,M,0.0,M,,*6D
$GPGGA,235701.000,5013.476,N,01710.476,E,1,09,0.8,459.810,M,0.0,M,,*6E
$GPGGA,235702.000,5013.475,N,01710.475,E,1,09,0.8,458.000,M,0.0,M,,*65
$GPGGA,235703.000,5013.477,N,01710.476,E,1,09,0.8,465.780,M,0.0,M,,*64
$GPGGA,235704.000,5013.478,N,01710.475,E,1,08,1.0,468.390,M,0.0,M,,*6F
$GPGGA,235705.000,5013.478,N,01710.474,E,1,08,1.0,469.280,M,0.0,M,,*6E
$GPGGA,235706.000,5013.480,N,01710.473,E,1,09,0.8,471.900,M,0.0,M,,*6F
$GPGGA,235707.000,5013.479,N,01710.474,E,1,09,0.8,472.800,M,0.0,M,,*6D
$GPGGA,235708.000,5013.479,N,01710.476,E,1,09,0.8,471.610,M,0.0,M,,*6C
$GPGGA,235709.000,5013.479,N,01710.480,E,1,08,1.4,474.900,M,0.0,M,,*63
$GPGGA,235710.000,5013.481,N,01710.479,E,1,09,0.8,475.980,M,0.0,M,,*6F
$GPGGA,235711.000,5013.480,N,01710.481,E,1,09,0.8,475.220,M,0.0,M,,*69
$GPGGA,235712.000,5013.477,N,01710.481,E,1,08,0.8,470.980,M,0.0,M,,*67
$GPGGA,235713.000,5013.474,N,01710.480,E,1,09,0.8,466.580,M,0.0,M,,*6E
$GPGGA,235714.000,5013.474,N,01710.480,E,1,07,1.4,465.030,M,0.0,M,,*67
$GPGGA,235715.000,5013.473,N,01710.477,E,1,09,0.8,462.900,M,0.0,M,,*67
$GPGGA,235716.000,5013.471,N,01710.481,E,1,09,0.8,466.720,M,0.0,M,,*67
$GPGGA,235717.000,5013.470,N,01710.481,E,1,09,0.8,465.880,M,0.0,M,,*61
$GPGGA,235718.000,5013.468,N,01710.477,E,1,08,1.4,467.410,M,0.0,M,,*65
$GPGGA,235719.000,5013.466,N,01710.472,E,1,09,0.8,468.650,M,0.0,M,,*6A
$GPGGA,235720.000,5013.465,N,01710.469,E,1,09,0.8,467.660,M,0.0,M,,*65
$GPGGA,235721.000,5013.463,N,01710.466,E,1,09,0.8,463.500,M,0.0,M,,*6C
$GPGGA,235722.000,5013.462,N,01710.460,E,1,07,0.8,462.250,M,0.0,M,,*65
$GPGGA,235723.000,5013.464,N,01710.455,E,1,09,0.8,456.880,M,0.0,M,,*6A
$GPGGA,235724.000,5013.464,N,01710.449,E,1,08,0.8,455.530,M,0.0,M,,*64
$GPGGA,235725.000,5013.464,N,01710.444,E,1,09,0.8,456.390,M,0.0,M,,*66
$GPGGA,235726.000,5013.463,N,01710.440,E,1,09,0.8,456.400,M,0.0,M,,*68
$GPGGA,235727.000,5013.463,N,01710.435,E,1,10,0.8,457.430,M,0.0,M,,*61
$GPGGA,235728.000,5013.462,N,01710.432,E,1,10,0.8,456.590,M,0.0,M,,*62
$GPGGA,235729.000,5013.461,N,01710.428,E,1,10,0.8,456.150,M,0.0,M,,*63
$GPGGA,235730.000,5013.460,N,01710.424,E,1,10,0.8,456.640,M,0.0,M,,*60
$GPGGA,235731.000,5013.459,N,01710.418,E,1,10,0.8,456.260,M,0.0,M,,*62
$GPGGA,235732.000,5013.458,N,01710.415,E,1,10,0.8,455.140,M,0.0,M,,*6F
$GPGGA,235733.000,5013.456,N,01710.410,E,1,10,0.8,457.490,M,0.0,M,,*6F
$GPGGA,235734.000,5013.454,N,01710.405,E,1,09,0.8,457.360,M,0.0,M,,*6E
$GPGGA,235735.000,5013.454,N,01710.403,E,1,10,0.8,455.410,M,0.0,M,,*63
$GPGGA,235736.000,5013.454,N,01710.401,E,1,10,0.8,455.740,M,0.0,M,,*64
$GPGGA,235737.000,5013.455,N,01710.397,E,1,10,0.8,461.000,M,0.0,M,,*68
$GPGGA,235738.000,5013.455,N,01710.396,E,1,10,0.8,460.730,M,0.0,M,,*63
$GPGGA,235739.000,5013.455,N,01710.396,E,1,09,0.8,460.400,M,0.0,M,,*6A
$GPGGA,235740.000,5013.455,N,01710.397,E,1,09,0.8,461.480,M,0.0,M,,*6C
$GPGGA,235741.000,5013.454,N,01710.395,E,1,10,0.8,465.360,M,0.0,M,,*6B
$GPGGA,235742.000,5013.454,N,01710.395,E,1,08,0.8,469.440,M,0.0,M,,*68
$GPGGA,235743.000,5013.453,N,01710.397,E,1,10,0.8,469.740,M,0.0,M,,*66
$GPGGA,235744.000,5013.451,N,01710.398,E,1,10,0.8,471.850,M,0.0,M,,*6B
$GPGGA,235745.000,5013.449,N,01710.400,E,1,10,0.8,472.800,M,0.0,M,,*63
$GPGGA,235746.000,5013.446,N,01710.395,E,1,10,0.8,467.890,M,0.0,M,,*69
$GPGGA,235747.000,5013.448,N,01710.394,E,1,10,0.8,461.400,M,0.0,M,,*64
$GPGGA,235748.000,5013.448,N,01710.393,E,1,10,0.8,457.620,M,0.0,M,,*69
$GPGGA,235749.000,5013.449,N,01710.392,E,1,00,0.8,458.310,M,0.0,M,,*60
$GPGGA,235750.000,5013.449,N,01710.396,E,1,10,0.8,456.330,M,0.0,M,,*61
$GPGGA,235751.000,5013.449,N,01710.401,E,1,10,0.8,462.140,M,0.0,M,,*6B
$GPGGA,235752.000,5013.450,N,01710.402,E,1,10,0.8,462.670,M,0.0,M,,*67
$GPGGA,235753.000,5013.450,N,01710.402,E,1,10,0.8,462.750,M,0.0,M,,*65
$GPGGA,235754.000,5013.451,N,01710.403,E,1,09,0.8,461.110,M,0.0,M,,*6B
$GPGGA,235755.000,5013.452,N,01710.401,E,1,10,0.8,452.280,M,0.0,M,,*69
$GPGGA,235756.000,5013.452,N,01710.399,E,1,10,0.8,448.850,M,0.0,M,,*60
$GPGGA,235757.000,5013.454,N,01710.396,E,1,09,0.8,444.780,M,0.0,M,,*6E
$GPGGA,235758.000,5013.454,N,01710.396,E,1,10,0.8,442.540,M,0.0,M,,*61
$GPGGA,235759.000,5013.454,N,01710.396,E,1,09,0.8,441.300,M,0.0,M,,*69
$GPGGA,235800.000,5013.453,N,01710.395,E,1,10,0.8,446.850,M,0.0,M,,*6F
$GPGGA,235801.000,5013.453,N,01710.396,E,1,10,0.8,443.950,M,0.0,M,,*69
$GPGGA,235802.000,5013.455,N,01710.394,E,1,10,0.8,439.990,M,0.0,M,,*6F
$GPGGA,235803.000,5013.454,N,01710.393,E,1,10,0.8,445.600,M,0.0,M,,*65
$GPGGA,235804.000,5013.453,N,01710.392,E,1,10,0.8,447.490,M,0.0,M,,*6D
$GPGGA,235805.000,5013.454,N,01710.392,E,1,10,0.8,451.700,M,0.0,M,,*66
$GPGGA,235806.000,5013.455,N,01710.392,E,1,09,0.8,454.440,M,0.0,M,,*6E
$GPGGA,235807.000,5013.454,N,01710.394,E,1,07,1.4,454.140,M,0.0,M,,*6E
$GPGGA,235808.000,5013.455,N,01710.394,E,1,10,0.8,448.270,M,0.0,M,,*66
$GPGGA,235809.000,5013.456,N,01710.396,E,1,10,0.8,445.410,M,0.0,M,,*6B
$GPGGA,235810.000,5013.454,N,01710.397,E,1,10,0.8,447.920,M,0.0,M,,*6C
$GPGGA,235811.000,5013.452,N,01710.398,E,1,10,0.8,451.430,M,0.0,M,,*6F
$GPGGA,235812.000,5013.448,N,01710.402,E,1,09,0.8,450.850,M,0.0,M,,*60
$GPGGA,235813.000,5013.447,N,01710.403,E,1,09,0.8,456.300,M,0.0,M,,*67
$GPGGA,235814.000,5013.449,N,01710.402,E,1,10,0.8,463.880,M,0.0,M,,*62
$GPGGA,235815.000,5013.450,N,01710.402,E,1,10,0.8,471.180,M,0.0,M,,*61
$GPGGA,235816.000,5013.452,N,01710.404,E,1,10,0.8,468.100,M,0.0,M,,*66
$GPGGA,235817.000,5013.451,N,01710.405,E,1,10,0.8,468.850,M,0.0,M,,*69
$GPGGA,235818.000,5013.450,N,01710.404,E,1,10,0.8,467.920,M,0.0,M,,*6F
$GPGGA,235819.000,5013.453,N,01710.405,E,1,10,0.8,466.010,M,0.0,M,,*67
$GPGGA,235820.000,5013.453,N,01710.405,E,1,10,0.8,467.520,M,0.0,M,,*6A
$GPGGA,235821.000,5013.454,N,01710.402,E,1,10,0.8,461.600,M,0.0,M,,*6C
$GPGGA,235822.000,5013.455,N,01710.399,E,1,10,0.8,457.770,M,0.0,M,,*68
$GPGGA,235823.000,5013.454,N,01710.395,E,1,10,0.8,457.350,M,0.0,M,,*62
$GPGGA,235824.000,5013.451,N,01710.393,E,1,10,0.8,469.760,M,0.0,M,,*6C
$GPGGA,235825.000,5013.449,N,01710.393,E,1,10,0.8,476.180,M,0.0,M,,*62
$GPGGA,235826.000,5013.449,N,01710.394,E,1,10,0.8,476.050,M,0.0,M,,*6A
$GPGGA,235827.000,5013.449,N,01710.397,E,1,09,0.8,467.700,M,0.0,M,,*62
$GPGGA,235828.000,5013.450,N,01710.397,E,1,08,1.2,467.770,M,0.0,M,,*68
$GPGGA,235829.000,5013.453,N,01710.395,E,1,08,1.0,458.990,M,0.0,M,,*66
$GPGGA,235830.000,5013.454,N,01710.394,E,1,09,0.8,447.570,M,0.0,M,,*6C
$GPGGA,235831.000,5013.453,N,01710.395,E,1,10,0.8,442.560,M,0.0,M,,*67
$GPGGA,235832.000,5013.450,N,01710.398,E,1,10,0.8,445.160,M,0.0,M,,*69
$GPGGA,235833.000,5013.451,N,01710.397,E,1,10,0.8,446.430,M,0.0,M,,*65
$GPGGA,235834.000,5013.451,N,01710.396,E,1,10,0.8,446.300,M,0.0,M,,*67
$GPGGA,235835.000,5013.451,N,01710.395,E,1,09,1.0,458.780,M,0.0,M,,*67
$GPGGA,235836.000,5013.452,N,01710.394,E,1,09,0.8,461.080,M,0.0,M,,*62
$GPGGA,235837.000,5013.446,N,01710.396,E,1,10,0.8,465.400,M,0.0,M,,*64
$GPGGA,235838.000,5013.444,N,01710.397,E,1,10,0.8,463.740,M,0.0,M,,*69
$GPGGA,235839.000,5013.445,N,01710.396,E,1,10,0.8,464.110,M,0.0,M,,*6C
$GPGGA,235840.000,5013.445,N,01710.394,E,1,10,0.8,457.600,M,0.0,M,,*66
$GPGGA,235841.000,5013.446,N,01710.395,E,1,10,0.8,456.180,M,0.0,M,,*6B
$GPGGA,235842.000,5013.448,N,01710.394,E,1,10,0.8,454.410,M,0.0,M,,*69
$GPGGA,235843.000,5013.449,N,01710.392,E,1,10,0.8,459.420,M,0.0,M,,*61
$GPGGA,235844.000,5013.449,N,01710.393,E,1,10,0.8,460.680,M,0.0,M,,*65
$GPGGA,235845.000,5013.450,N,01710.394,E,1,10,0.8,460.960,M,0.0,M,,*6A
$GPGGA,235846.000,5013.450,N,01710.394,E,1,10,0.8,463.330,M,0.0,M,,*65
$GPGGA,235847.000,5013.451,N,01710.394,E,1,09,0.8,462.570,M,0.0,M,,*6E
$GPGGA,235848.000,5013.451,N,01710.398,E,1,09,0.8,462.820,M,0.0,M,,*65
$GPGGA,235849.000,5013.452,N,01710.399,E,1,09,0.8,462.800,M,0.0,M,,*64
$GPGGA,235850.000,5013.455,N,01710.406,E,1,04,1.4,468.140,M,0.0,M,,*6D
$GPGGA,235851.000,5013.454,N,01710.405,E,1,08,1.0,460.880,M,0.0,M,,*6B
$GPGGA,235852.000,5013.455,N,01710.406,E,1,08,1.0,461.070,M,0.0,M,,*6C
$GPGGA,235853.000,5013.454,N,01710.408,E,1,08,1.0,459.990,M,0.0,M,,*6E
$GPGGA,235854.000,5013.452,N,01710.417,E,1,08,1.0,459.880,M,0.0,M,,*61
$GPGGA,235855.000,5013.448,N,01710.433,E,1,08,1.0,459.810,M,0.0,M,,*64
$GPGGA,235856.000,5013.450,N,01710.448,E,1,08,1.0,460.050,M,0.0,M,,*64
$GPGGA,235857.000,5013.458,N,01710.456,E,1,07,1.2,459.890,M,0.0,M,,*61
$GPGGA,235858.000,5013.466,N,01710.462,E,1,07,1.2,460.100,M,0.0,M,,*6E
$GPGGA,235859.000,5013.474,N,01710.469,E,1,08,1.0,460.590,M,0.0,M,,*67
$GPGGA,235900.000,5013.482,N,01710.472,E,1,08,1.0,460.790,M,0.0,M,,*6B
$GPGGA,235901.000,5013.490,N,01710.477,E,1,08,1.0,460.830,M,0.0,M,,*69
$GPGGA,235902.000,5013.493,N,01710.487,E,1,08,1.0,460.860,M,0.0,M,,*63
$GPGGA,235903.000,5013.493,N,01710.500,E,1,08,1.0,460.740,M,0.0,M,,*61
$GPGGA,235904.000,5013.487,N,01710.507,E,1,08,1.0,460.160,M,0.0,M,,*60
$GPGGA,235905.000,5013.479,N,01710.498,E,1,08,1.0,461.000,M,0.0,M,,*61
$GPGGA,235906.000,5013.469,N,01710.490,E,1,08,1.0,461.780,M,0.0,M,,*64
$GPGGA,235907.000,5013.458,N,01710.484,E,1,08,1.0,461.890,M,0.0,M,,*6C
$GPGGA,235908.000,5013.446,N,01710.479,E,1,08,1.0,462.000,M,0.0,M,,*6C
$GPGGA,235909.000,5013.436,N,01710.473,E,1,07,1.2,462.890,M,0.0,M,,*6C
$GPGGA,235910.000,5013.423,N,01710.465,E,1,08,1.0,462.640,M,0.0,M,,*69
$GPGGA,235911.000,5013.412,N,01710.460,E,1,08,1.0,463.270,M,0.0,M,,*69
$GPGGA,235912.000,5013.402,N,01710.454,E,1,07,1.2,463.640,M,0.0,M,,*66
$GPGGA,235913.000,5013.392,N,01710.448,E,1,08,1.0,464.840,M,0.0,M,,*60
$GPGGA,235914.000,5013.384,N,01710.439,E,1,08,1.0,465.990,M,0.0,M,,*6B
$GPGGA,235915.000,5013.376,N,01710.429,E,1,07,1.2,466.180,M,0.0,M,,*61
$GPGGA,235916.000,5013.370,N,01710.419,E,1,07,1.2,467.610,M,0.0,M,,*68
$GPGGA,235917.000,5013.365,N,01710.413,E,1,08,1.0,468.670,M,0.0,M,,*63
$GPGGA,235918.000,5013.360,N,01710.405,E,1,08,1.0,468.920,M,0.0,M,,*64
$GPGGA,235919.000,5013.355,N,01710.396,E,1,08,1.0,469.930,M,0.0,M,,*6E
$GPGGA,235920.000,5013.349,N,01710.388,E,1,08,1.0,471.400,M,0.0,M,,*61
$GPGGA,235921.000,5013.343,N,01710.381,E,1,08,1.0,473.260,M,0.0,M,,*61
$GPGGA,235922.000,5013.337,N,01710.375,E,1,08,1.0,475.170,M,0.0,M,,*6E
$GPGGA,235923.000,5013.331,N,01710.371,E,1,07,1.2,477.130,M,0.0,M,,*66
$GPGGA,235924.000,5013.324,N,01710.367,E,1,07,1.2,478.860,M,0.0,M,,*61
$GPGGA,235925.000,5013.318,N,01710.363,E,1,07,1.2,480.250,M,0.0,M,,*65
$GPGGA,235926.000,5013.311,N,01710.360,E,1,07,1.2,481.240,M,0.0,M,,*6C
$GPGGA,235927.000,5013.305,N,01710.357,E,1,08,1.0,482.110,M,0.0,M,,*64
$GPGGA,235928.000,5013.298,N,01710.356,E,1,08,1.0,482.900,M,0.0,M,,*66
$GPGGA,235929.000,5013.292,N,01710.353,E,1,08,1.0,483.710,M,0.0,M,,*66
$GPGGA,235930.000,5013.285,N,01710.350,E,1,08,1.0,484.710,M,0.0,M,,*6C
$GPGGA,235931.000,5013.279,N,01710.345,E,1,08,1.0,485.870,M,0.0,M,,*62
$GPGGA,235932.000,5013.273,N,01710.339,E,1,08,1.0,486.930,M,0.0,M,,*66
$GPGGA,235933.000,5013.268,N,01710.331,E,1,08,1.0,487.680,M,0.0,M,,*60
$GPGGA,235934.000,5013.263,N,01710.322,E,1,08,1.0,488.910,M,0.0,M,,*67
$GPGGA,235935.000,5013.258,N,01710.315,E,1,07,1.2,490.010,M,0.0,M,,*67
$GPGGA,235936.000,5013.252,N,01710.308,E,1,08,1.0,491.170,M,0.0,M,,*69
$GPGGA,235937.000,5013.249,N,01710.298,E,1,08,1.0,491.980,M,0.0,M,,*6D
$GPGGA,235938.000,5013.249,N,01710.288,E,1,08,1.0,492.670,M,0.0,M,,*60
$GPGGA,235939.000,5013.255,N,01710.278,E,1,08,1.0,492.730,M,0.0,M,,*66
$GPGGA,235940.000,5013.262,N,01710.268,E,1,08,1.0,492.360,M,0.0,M,,*6C
$GPGGA,235941.000,5013.271,N,01710.254,E,1,08,1.0,491.990,M,0.0,M,,*66
$GPGGA,235942.000,5013.280,N,01710.239,E,1,08,1.0,491.790,M,0.0,M,,*6E
$GPGGA,235943.000,5013.289,N,01710.224,E,1,08,1.0,491.730,M,0.0,M,,*60
$GPGGA,235944.000,5013.297,N,01710.209,E,1,08,1.0,491.700,M,0.0,M,,*64
$GPGGA,235945.000,5013.306,N,01710.194,E,1,09,0.8,491.180,M,0.0,M,,*6D
$GPGGA,235946.000,5013.318,N,01710.178,E,1,09,0.8,490.080,M,0.0,M,,*63
$GPGGA,235947.000,5013.331,N,01710.160,E,1,09,0.8,488.670,M,0.0,M,,*60
$GPGGA,235948.000,5013.347,N,01710.142,E,1,09,0.8,486.700,M,0.0,M,,*66
$GPGGA,235949.000,5013.366,N,01710.122,E,1,09,0.8,483.980,M,0.0,M,,*61
$GPGGA,235950.000,5013.388,N,01710.104,E,1,09,0.8,480.470,M,0.0,M,,*6C
$GPGGA,235951.000,5013.412,N,01710.096,E,1,09,0.8,477.550,M,0.0,M,,*68
$GPGGA,235952.000,5013.429,N,01710.086,E,1,09,0.8,475.250,M,0.0,M,,*67
$GPGGA,235953.000,5013.447,N,01710.063,E,1,09,0.8,471.340,M,0.0,M,,*61
$GPGGA,235954.000,5013.458,N,01710.027,E,1,09,0.8,470.250,M,0.0,M,,*69
$GPGGA,235955.000,5013.469,N,01709.996,E,1,09,0.8,469.600,M,0.0,M,,*68
$GPGGA,235956.000,5013.480,N,01709.968,E,1,09,0.8,469.250,M,0.0,M,,*6C
$GPGGA,235957.000,5013.489,N,01709.949,E,1,09,0.8,470.300,M,0.0,M,,*6B
$GPGGA,235958.000,5013.493,N,01709.944,E,1,09,0.8,470.670,M,0.0,M,,*60
$GPGGA,235959.000,5013.498,N,01709.946,E,1,09,0.8,470.720,M,0.0,M,,*6C
$GPGGA,000000.000,5013.504,N,01709.934,E,1,09,0.8,470.540,M,0.0,M,,*68
$GPGGA,000001.000,5013.510,N,01709.915,E,1,09,0.8,470.190,M,0.0,M,,*66
$GPGGA,000002.000,5013.517,N,01709.896,E,1,09,0.8,469.990,M,0.0,M,,*68
$GPGGA,000003.000,5013.523,N,01709.876,E,1,09,0.8,469.610,M,0.0,M,,*67
$GPGGA,000004.000,5013.529,N,01709.857,E,1,09,0.8,469.540,M,0.0,M,,*6F
$GPGGA,000005.000,5013.536,N,01709.847,E,1,09,0.8,470.090,M,0.0,M,,*61
$GPGGA,000006.000,5013.547,N,01709.843,E,1,09,0.8,469.300,M,0.0,M,,*62
$GPGGA,000007.000,5013.561,N,01709.845,E,1,09,0.8,469.080,M,0.0,M,,*6A
$GPGGA,000008.000,5013.576,N,01709.847,E,1,09,0.8,468.910,M,0.0,M,,*60
$GPGGA,000009.000,5013.591,N,01709.850,E,1,09,0.8,468.770,M,0.0,M,,*66
$GPGGA,000010.000,5013.605,N,01709.855,E,1,09,0.8,468.920,M,0.0,M,,*6E
$GPGGA,000011.000,5013.618,N,01709.858,E,1,09,0.8,468.940,M,0.0,M,,*68
$GPGGA,000012.000,5013.631,N,01709.856,E,1,09,0.8,469.360,M,0.0,M,,*67
$GPGGA,000013.000,5013.641,N,01709.844,E,1,09,0.8,469.490,M,0.0,M,,*6A
$GPGGA,000014.000,5013.647,N,01709.825,E,1,09,0.8,469.750,M,0.0,M,,*63
$GPGGA,000015.000,5013.652,N,01709.805,E,1,09,0.8,470.260,M,0.0,M,,*6A
$GPGGA,000016.000,5013.657,N,01709.787,E,1,09,0.8,470.860,M,0.0,M,,*63
$GPGGA,000017.000,5013.667,N,01709.772,E,1,09,0.8,471.180,M,0.0,M,,*6D
$GPGGA,000018.000,5013.677,N,01709.755,E,1,09,0.8,469.900,M,0.0,M,,*6F
$GPGGA,000019.000,5013.677,N,01709.734,E,1,09,0.8,470.340,M,0.0,M,,*6F
$GPGGA,000020.000,5013.677,N,01709.713,E,1,09,0.8,470.930,M,0.0,M,,*6D
$GPGGA,000021.000,5013.681,N,01709.693,E,1,09,0.8,471.480,M,0.0,M,,*6B
$GPGGA,000022.000,5013.687,N,01709.675,E,1,09,0.8,472.100,M,0.0,M,,*68
$GPGGA,000023.000,5013.695,N,01709.659,E,1,09,0.8,472.750,M,0.0,M,,*67
$GPGGA,000024.000,5013.700,N,01709.640,E,1,09,0.8,473.040,M,0.0,M,,*62
$GPGGA,000025.000,5013.702,N,01709.616,E,1,09,0.8,472.860,M,0.0,M,,*69
$GPGGA,000026.000,5013.699,N,01709.593,E,1,09,0.8,473.060,M,0.0,M,,*6E
$GPGGA,000027.000,5013.697,N,01709.570,E,1,09,0.8,473.460,M,0.0,M,,*68
$GPGGA,000028.000,5013.695,N,01709.546,E,1,09,0.8,473.850,M,0.0,M,,*6F
$GPGGA,000029.000,5013.694,N,01709.523,E,1,09,0.8,474.150,M,0.0,M,,*62
$GPGGA,000030.000,5013.693,N,01709.501,E,1,09,0.8,474.600,M,0.0,M,,*6F
$GPGGA,000031.000,5013.693,N,01709.478,E,1,09,0.8,475.010,M,0.0,M,,*67
$GPGGA,000032.000,5013.693,N,01709.455,E,1,09,0.8,475.300,M,0.0,M,,*69
$GPGGA,000033.000,5013.694,N,01709.434,E,1,08,1.0,475.840,M,0.0,M,,*6F
$GPGGA,000034.000,5013.694,N,01709.411,E,1,09,0.8,476.490,M,0.0,M,,*65
$GPGGA,000035.000,5013.696,N,01709.391,E,1,09,0.8,476.670,M,0.0,M,,*65
$GPGGA,000036.000,5013.696,N,01709.371,E,1,09,0.8,476.890,M,0.0,M,,*68
$GPGGA,000037.000,5013.695,N,01709.351,E,1,09,0.8,477.260,M,0.0,M,,*6C
$GPGGA,000038.000,5013.694,N,01709.330,E,1,09,0.8,477.700,M,0.0,M,,*66
$GPGGA,000039.000,5013.691,N,01709.311,E,1,09,0.8,477.630,M,0.0,M,,*63
$GPGGA,000040.000,5013.691,N,01709.296,E,1,09,0.8,477.990,M,0.0,M,,*66
$GPGGA,000041.000,5013.690,N,01709.279,E,1,09,0.8,478.070,M,0.0,M,,*6F
$GPGGA,000042.000,5013.690,N,01709.261,E,1,09,0.8,478.410,M,0.0,M,,*67
$GPGGA,000043.000,5013.692,N,01709.242,E,1,09,0.8,478.830,M,0.0,M,,*6B
$GPGGA,000044.000,5013.696,N,01709.223,E,1,09,0.8,479.250,M,0.0,M,,*62
$GPGGA,000045.000,5013.702,N,01709.205,E,1,09,0.8,479.460,M,0.0,M,,*6E
$GPGGA,000046.000,5013.706,N,01709.185,E,1,09,0.8,479.800,M,0.0,M,,*68
$GPGGA,000047.000,5013.709,N,01709.165,E,1,09,0.8,480.200,M,0.0,M,,*64
$GPGGA,000048.000,5013.710,N,01709.144,E,1,09,0.8,480.770,M,0.0,M,,*62
$GPGGA,000049.000,5013.709,N,01709.126,E,1,09,0.8,481.180,M,0.0,M,,*67
$GPGGA,000050.000,5013.707,N,01709.107,E,1,09,0.8,481.700,M,0.0,M,,*6C
$GPGGA,000051.000,5013.715,N,01709.096,E,1,09,0.8,482.130,M,0.0,M,,*61
$GPGGA,000052.000,5013.712,N,01709.079,E,1,09,0.8,482.780,M,0.0,M,,*69
$GPGGA,000053.000,5013.706,N,01709.060,E,1,09,0.8,483.160,M,0.0,M,,*6C
$GPGGA,000054.000,5013.701,N,01709.041,E,1,09,1.0,484.150,M,0.0,M,,*62
$GPGGA,000055.000,5013.700,N,01709.021,E,1,09,1.0,484.650,M,0.0,M,,*63
$GPGGA,000056.000,5013.707,N,01709.001,E,1,09,1.0,484.680,M,0.0,M,,*68
$GPGGA,000057.000,5013.715,N,01708.984,E,1,08,1.0,485.270,M,0.0,M,,*64
$GPGGA,000058.000,5013.721,N,01708.965,E,1,09,1.0,486.260,M,0.0,M,,*60
$GPGGA,000059.000,5013.725,N,01708.946,E,1,09,1.0,486.540,M,0.0,M,,*61
$GPGGA,000100.000,5013.729,N,01708.925,E,1,09,1.0,486.840,M,0.0,M,,*68
$GPGGA,000101.000,5013.733,N,01708.904,E,1,09,1.0,487.400,M,0.0,M,,*68
$GPGGA,000102.000,5013.737,N,01708.884,E,1,09,1.0,487.660,M,0.0,M,,*62
$GPGGA,000103.000,5013.741,N,01708.864,E,1,09,1.0,487.670,M,0.0,M,,*6D
$GPGGA,000104.000,5013.743,N,01708.844,E,1,09,1.0,488.070,M,0.0,M,,*63
$GPGGA,000105.000,5013.744,N,01708.824,E,1,09,1.0,488.770,M,0.0,M,,*64
$GPGGA,000106.000,5013.744,N,01708.804,E,1,09,1.0,489.100,M,0.0,M,,*65
$GPGGA,000107.000,5013.743,N,01708.783,E,1,09,1.0,488.930,M,0.0,M,,*69
$GPGGA,000108.000,5013.742,N,01708.762,E,1,09,1.0,489.000,M,0.0,M,,*63
$GPGGA,000109.000,5013.740,N,01708.742,E,1,09,1.0,489.010,M,0.0,M,,*63
$GPGGA,000110.000,5013.737,N,01708.723,E,1,09,1.0,489.220,M,0.0,M,,*6D
$GPGGA,000111.000,5013.733,N,01708.703,E,1,09,1.0,489.340,M,0.0,M,,*6D
$GPGGA,000112.000,5013.728,N,01708.685,E,1,09,1.0,489.020,M,0.0,M,,*6E
$GPGGA,000113.000,5013.722,N,01708.667,E,1,09,1.0,489.370,M,0.0,M,,*6F
$GPGGA,000114.000,5013.715,N,01708.649,E,1,09,1.0,489.460,M,0.0,M,,*66
$GPGGA,000115.000,5013.707,N,01708.632,E,1,09,1.0,490.640,M,0.0,M,,*60
$GPGGA,000116.000,5013.698,N,01708.615,E,1,09,1.0,491.210,M,0.0,M,,*61
$GPGGA,000117.000,5013.690,N,01708.597,E,1,09,1.0,491.470,M,0.0,M,,*61
$GPGGA,000118.000,5013.685,N,01708.580,E,1,09,1.0,492.000,M,0.0,M,,*6C
$GPGGA,000119.000,5013.676,N,01708.569,E,1,09,1.0,493.010,M,0.0,M,,*66
$GPGGA,000120.000,5013.664,N,01708.574,E,1,09,1.0,492.580,M,0.0,M,,*6E
$GPGGA,000121.000,5013.658,N,01708.558,E,1,09,1.0,492.110,M,0.0,M,,*63
$GPGGA,000122.000,5013.655,N,01708.540,E,1,09,1.0,492.350,M,0.0,M,,*62
$GPGGA,000123.000,5013.654,N,01708.524,E,1,09,1.0,492.690,M,0.0,M,,*69
$GPGGA,000124.000,5013.652,N,01708.514,E,1,09,1.0,493.650,M,0.0,M,,*66
$GPGGA,000125.000,5013.650,N,01708.505,E,1,09,1.0,494.480,M,0.0,M,,*6D
$GPGGA,000126.000,5013.648,N,01708.497,E,1,09,1.0,494.310,M,0.0,M,,*63
$GPGGA,000127.000,5013.646,N,01708.490,E,1,09,1.0,494.130,M,0.0,M,,*6B
$GPGGA,000128.000,5013.645,N,01708.484,E,1,09,1.0,494.270,M,0.0,M,,*65
$GPGGA,000129.000,5013.645,N,01708.478,E,1,09,1.0,494.730,M,0.0,M,,*66
$GPGGA,000130.000,5013.644,N,01708.476,E,1,09,1.0,495.210,M,0.0,M,,*67
$GPGGA,000131.000,5013.643,N,01708.472,E,1,09,1.0,495.500,M,0.0,M,,*63
$GPGGA,000132.000,5013.642,N,01708.471,E,1,09,1.0,495.780,M,0.0,M,,*68
$GPGGA,000133.000,5013.640,N,01708.470,E,1,09,1.0,495.860,M,0.0,M,,*6B
$GPGGA,000134.000,5013.639,N,01708.470,E,1,09,1.0,496.210,M,0.0,M,,*6C
$GPGGA,000135.000,5013.639,N,01708.468,E,1,09,1.0,495.660,M,0.0,M,,*64
$GPGGA,000136.000,5013.640,N,01708.468,E,1,09,1.0,495.130,M,0.0,M,,*6B
$GPGGA,000137.000,5013.640,N,01708.468,E,1,09,1.0,495.040,M,0.0,M,,*6C
$GPGGA,000138.000,5013.642,N,01708.466,E,1,09,1.0,494.590,M,0.0,M,,*66
$GPGGA,000139.000,5013.642,N,01708.462,E,1,09,1.0,494.170,M,0.0,M,,*69
$GPGGA,000140.000,5013.642,N,01708.458,E,1,09,1.0,494.430,M,0.0,M,,*6F
$GPGGA,000141.000,5013.642,N,01708.453,E,1,09,1.0,495.260,M,0.0,M,,*67
$GPGGA,000142.000,5013.641,N,01708.447,E,1,09,1.0,495.540,M,0.0,M,,*67
$GPGGA,000143.000,5013.640,N,01708.440,E,1,09,1.0,496.000,M,0.0,M,,*62
$GPGGA,000144.000,5013.638,N,01708.428,E,1,09,1.0,495.970,M,0.0,M,,*69
$GPGGA,000145.000,5013.635,N,01708.413,E,1,09,1.0,496.020,M,0.0,M,,*62
$GPGGA,000146.000,5013.632,N,01708.399,E,1,09,1.0,496.180,M,0.0,M,,*68
$GPGGA,000147.000,5013.627,N,01708.384,E,1,09,1.0,496.280,M,0.0,M,,*62
$GPGGA,000148.000,5013.620,N,01708.369,E,1,09,1.0,496.420,M,0.0,M,,*65
$GPGGA,000149.000,5013.613,N,01708.352,E,1,08,1.0,496.850,M,0.0,M,,*66
$GPGGA,000150.000,5013.607,N,01708.336,E,1,09,1.0,496.710,M,0.0,M,,*63
$GPGGA,000151.000,5013.603,N,01708.318,E,1,09,1.0,497.620,M,0.0,M,,*69
$GPGGA,000152.000,5013.599,N,01708.298,E,1,09,1.0,497.790,M,0.0,M,,*69
$GPGGA,000153.000,5013.598,N,01708.277,E,1,09,1.0,498.110,M,0.0,M,,*69
$GPGGA,000154.000,5013.596,N,01708.257,E,1,09,1.0,498.430,M,0.0,M,,*65
$GPGGA,000155.000,5013.594,N,01708.236,E,1,09,1.0,498.890,M,0.0,M,,*67
$GPGGA,000156.000,5013.593,N,01708.216,E,1,09,1.0,499.200,M,0.0,M,,*63
$GPGGA,000157.000,5013.591,N,01708.195,E,1,09,1.0,499.620,M,0.0,M,,*6E
$GPGGA,000158.000,5013.589,N,01708.175,E,1,09,1.0,500.010,M,0.0,M,,*62
$GPGGA,000159.000,5013.587,N,01708.157,E,1,09,1.0,500.490,M,0.0,M,,*61
$GPGGA,000200.000,5013.584,N,01708.140,E,1,09,1.0,500.700,M,0.0,M,,*61
$GPGGA,000201.000,5013.580,N,01708.127,E,1,09,1.0,501.290,M,0.0,M,,*68
$GPGGA,000202.000,5013.575,N,01708.111,E,1,09,1.0,501.440,M,0.0,M,,*6F
$GPGGA,000203.000,5013.567,N,01708.097,E,1,09,1.0,501.780,M,0.0,M,,*6D
$GPGGA,000204.000,5013.558,N,01708.085,E,1,09,1.0,502.710,M,0.0,M,,*6F
$GPGGA,000205.000,5013.549,N,01708.072,E,1,09,1.0,503.270,M,0.0,M,,*64
$GPGGA,000206.000,5013.541,N,01708.057,E,1,09,1.0,503.560,M,0.0,M,,*6E
$GPGGA,000207.000,5013.534,N,01708.043,E,1,09,1.0,503.690,M,0.0,M,,*64
$GPGGA,000208.000,5013.527,N,01708.028,E,1,08,1.0,503.760,M,0.0,M,,*6B
$GPGGA,000209.000,5013.519,N,01708.014,E,1,09,1.0,504.210,M,0.0,M,,*6C
$GPGGA,000210.000,5013.513,N,01707.999,E,1,09,1.0,505.330,M,0.0,M,,*6F
$GPGGA,000211.000,5013.511,N,01707.981,E,1,09,1.0,505.570,M,0.0,M,,*67
$GPGGA,000212.000,5013.510,N,01707.963,E,1,09,1.0,505.900,M,0.0,M,,*62
$GPGGA,000213.000,5013.510,N,01707.943,E,1,09,1.0,506.490,M,0.0,M,,*66
$GPGGA,000214.000,5013.512,N,01707.923,E,1,08,1.0,506.590,M,0.0,M,,*65
$GPGGA,000215.000,5013.517,N,01707.904,E,1,09,1.0,506.400,M,0.0,M,,*6D
$GPGGA,000216.000,5013.522,N,01707.885,E,1,09,1.0,506.730,M,0.0,M,,*60
$GPGGA,000217.000,5013.527,N,01707.867,E,1,09,1.0,507.120,M,0.0,M,,*6E
$GPGGA,000218.000,5013.531,N,01707.848,E,1,09,1.0,507.390,M,0.0,M,,*62
$GPGGA,000219.000,5013.532,N,01707.828,E,1,09,1.0,507.210,M,0.0,M,,*6F
$GPGGA,000220.000,5013.531,N,01707.807,E,1,09,1.0,507.480,M,0.0,M,,*64
$GPGGA,000221.000,5013.531,N,01707.788,E,1,09,1.0,508.200,M,0.0,M,,*6C
$GPGGA,000222.000,5013.537,N,01707.772,E,1,09,1.0,508.810,M,0.0,M,,*67
$GPGGA,000223.000,5013.544,N,01707.756,E,1,09,1.0,509.130,M,0.0,M,,*6E
$GPGGA,000224.000,5013.551,N,01707.740,E,1,09,1.0,509.870,M,0.0,M,,*67
$GPGGA,000225.000,5013.558,N,01707.725,E,1,09,1.0,510.120,M,0.0,M,,*68
$GPGGA,000226.000,5013.564,N,01707.711,E,1,09,1.0,510.060,M,0.0,M,,*66
$GPGGA,000227.000,5013.568,N,01707.694,E,1,08,1.0,510.030,M,0.0,M,,*63
$GPGGA,000228.000,5013.573,N,01707.675,E,1,09,1.0,510.130,M,0.0,M,,*69
$GPGGA,000229.000,5013.579,N,01707.656,E,1,09,1.0,509.860,M,0.0,M,,*67
$GPGGA,000230.000,5013.585,N,01707.638,E,1,09,1.0,509.880,M,0.0,M,,*6A
$GPGGA,000231.000,5013.588,N,01707.618,E,1,09,1.0,510.120,M,0.0,M,,*6F
$GPGGA,000232.000,5013.589,N,01707.596,E,1,09,1.0,510.390,M,0.0,M,,*61
$GPGGA,000233.000,5013.591,N,01707.574,E,1,09,1.0,510.850,M,0.0,M,,*62
$GPGGA,000234.000,5013.593,N,01707.551,E,1,09,1.0,511.420,M,0.0,M,,*6A
$GPGGA,000235.000,5013.594,N,01707.529,E,1,09,1.0,511.970,M,0.0,M,,*6B
$GPGGA,000236.000,5013.594,N,01707.506,E,1,09,1.0,512.290,M,0.0,M,,*63
$GPGGA,000237.000,5013.594,N,01707.484,E,1,09,1.0,512.580,M,0.0,M,,*6F
$GPGGA,000238.000,5013.591,N,01707.461,E,1,09,1.0,512.910,M,0.0,M,,*6B
$GPGGA,000239.000,5013.590,N,01707.437,E,1,09,1.0,513.260,M,0.0,M,,*65
$GPGGA,000240.000,5013.588,N,01707.413,E,1,09,1.0,513.640,M,0.0,M,,*62
$GPGGA,000241.000,5013.588,N,01707.389,E,1,09,1.0,514.140,M,0.0,M,,*67
$GPGGA,000242.000,5013.588,N,01707.365,E,1,09,1.0,514.350,M,0.0,M,,*65
$GPGGA,000243.000,5013.592,N,01707.342,E,1,09,1.0,514.630,M,0.0,M,,*69
$GPGGA,000244.000,5013.599,N,01707.322,E,1,09,1.0,515.820,M,0.0,M,,*6D
$GPGGA,000245.000,5013.602,N,01707.302,E,1,09,1.0,516.500,M,0.0,M,,*63
$GPGGA,000246.000,5013.605,N,01707.281,E,1,09,1.0,517.370,M,0.0,M,,*6D
$GPGGA,000247.000,5013.604,N,01707.259,E,1,09,1.0,516.450,M,0.0,M,,*6C
$GPGGA,000248.000,5013.600,N,01707.239,E,1,09,1.0,516.810,M,0.0,M,,*69
$GPGGA,000249.000,5013.591,N,01707.221,E,1,09,1.0,517.630,M,0.0,M,,*67
$GPGGA,000250.000,5013.579,N,01707.210,E,1,09,1.0,517.990,M,0.0,M,,*6E
$GPGGA,000251.000,5013.567,N,01707.197,E,1,09,1.0,518.250,M,0.0,M,,*64
$GPGGA,000252.000,5013.564,N,01707.174,E,1,09,1.0,518.530,M,0.0,M,,*68
$GPGGA,000253.000,5013.563,N,01707.151,E,1,09,1.0,519.080,M,0.0,M,,*66
$GPGGA,000254.000,5013.564,N,01707.128,E,1,09,1.0,519.770,M,0.0,M,,*60
$GPGGA,000255.000,5013.566,N,01707.107,E,1,09,1.0,520.380,M,0.0,M,,*6F
$GPGGA,000256.000,5013.566,N,01707.087,E,1,09,1.0,520.900,M,0.0,M,,*67
$GPGGA,000257.000,5013.564,N,01707.067,E,1,09,1.0,521.080,M,0.0,M,,*6A
$GPGGA,000258.000,5013.561,N,01707.048,E,1,09,1.0,521.560,M,0.0,M,,*66
$GPGGA,000259.000,5013.558,N,01707.030,E,1,09,1.0,522.140,M,0.0,M,,*67
$GPGGA,000300.000,5013.553,N,01707.012,E,1,09,1.0,522.990,M,0.0,M,,*64
$GPGGA,000301.000,5013.550,N,01706.994,E,1,09,1.0,523.670,M,0.0,M,,*60
$GPGGA,000302.000,5013.546,N,01706.974,E,1,07,1.4,524.280,M,0.0,M,,*6C
$GPGGA,000303.000,5013.542,N,01706.954,E,1,09,1.0,524.640,M,0.0,M,,*69
$GPGGA,000304.000,5013.538,N,01706.935,E,1,09,1.0,525.260,M,0.0,M,,*63
$GPGGA,000305.000,5013.534,N,01706.915,E,1,09,1.0,525.910,M,0.0,M,,*60
$GPGGA,000306.000,5013.530,N,01706.898,E,1,09,1.0,526.520,M,0.0,M,,*6F
$GPGGA,000307.000,5013.526,N,01706.881,E,1,09,1.0,527.370,M,0.0,M,,*63
$GPGGA,000308.000,5013.522,N,01706.865,E,1,09,1.0,527.880,M,0.0,M,,*66
$GPGGA,000309.000,5013.517,N,01706.850,E,1,09,1.0,528.020,M,0.0,M,,*6A
$GPGGA,000310.000,5013.511,N,01706.835,E,1,09,1.0,528.230,M,0.0,M,,*64
$GPGGA,000311.000,5013.508,N,01706.819,E,1,09,1.0,528.180,M,0.0,M,,*6B
$GPGGA,000312.000,5013.506,N,01706.802,E,1,09,1.0,528.440,M,0.0,M,,*65
$GPGGA,000313.000,5013.506,N,01706.785,E,1,09,1.0,528.870,M,0.0,M,,*6B
$GPGGA,000314.000,5013.505,N,01706.768,E,1,09,1.0,529.250,M,0.0,M,,*65
$GPGGA,000315.000,5013.503,N,01706.750,E,1,09,1.0,529.430,M,0.0,M,,*69
$GPGGA,000316.000,5013.498,N,01706.733,E,1,09,1.0,529.960,M,0.0,M,,*64
$GPGGA,000317.000,5013.490,N,01706.719,E,1,09,1.0,530.940,M,0.0,M,,*6F
$GPGGA,000318.000,5013.482,N,01706.705,E,1,09,1.0,531.930,M,0.0,M,,*68
$GPGGA,000319.000,5013.475,N,01706.689,E,1,09,1.0,533.090,M,0.0,M,,*65
$GPGGA,000320.000,5013.470,N,01706.669,E,1,09,1.0,533.810,M,0.0,M,,*64
$GPGGA,000321.000,5013.466,N,01706.651,E,1,09,1.0,534.210,M,0.0,M,,*64
$GPGGA,000322.000,5013.460,N,01706.635,E,1,09,1.0,534.660,M,0.0,M,,*60
$GPGGA,000323.000,5013.452,N,01706.620,E,1,09,1.0,534.960,M,0.0,M,,*6B
$GPGGA,000324.000,5013.446,N,01706.604,E,1,09,1.0,535.160,M,0.0,M,,*66
$GPGGA,000325.000,5013.441,N,01706.589,E,1,09,1.0,535.680,M,0.0,M,,*6F
$GPGGA,000326.000,5013.437,N,01706.575,E,1,09,1.0,535.880,M,0.0,M,,*60
$GPGGA,000327.000,5013.432,N,01706.560,E,1,09,1.0,536.500,M,0.0,M,,*66
$GPGGA,000328.000,5013.426,N,01706.546,E,1,09,1.0,537.920,M,0.0,M,,*67
$GPGGA,000329.000,5013.420,N,01706.532,E,1,09,1.0,538.880,M,0.0,M,,*67
$GPGGA,000330.000,5013.413,N,01706.518,E,1,09,1.0,539.200,M,0.0,M,,*64
$GPGGA,000331.000,5013.404,N,01706.504,E,1,09,1.0,539.520,M,0.0,M,,*6B
$GPGGA,000332.000,5013.396,N,01706.490,E,1,09,1.0,540.550,M,0.0,M,,*61
$GPGGA,000333.000,5013.388,N,01706.476,E,1,09,1.0,541.610,M,0.0,M,,*61
$GPGGA,000334.000,5013.381,N,01706.465,E,1,09,1.0,542.430,M,0.0,M,,*6E
$GPGGA,000335.000,5013.372,N,01706.455,E,1,09,1.0,542.400,M,0.0,M,,*63
$GPGGA,000336.000,5013.364,N,01706.446,E,1,09,1.0,542.750,M,0.0,M,,*63
$GPGGA,000337.000,5013.354,N,01706.439,E,1,09,1.0,543.760,M,0.0,M,,*6B
$GPGGA,000338.000,5013.343,N,01706.438,E,1,09,1.0,543.730,M,0.0,M,,*66
$GPGGA,000339.000,5013.332,N,01706.438,E,1,09,1.0,544.060,M,0.0,M,,*64
$GPGGA,000340.000,5013.321,N,01706.437,E,1,09,1.0,544.240,M,0.0,M,,*67
$GPGGA,000341.000,5013.309,N,01706.434,E,1,09,1.0,544.390,M,0.0,M,,*63
$GPGGA,000342.000,5013.297,N,01706.431,E,1,09,1.0,544.600,M,0.0,M,,*6F
$GPGGA,000343.000,5013.285,N,01706.426,E,1,09,1.0,544.870,M,0.0,M,,*62
$GPGGA,000344.000,5013.273,N,01706.422,E,1,09,1.0,545.300,M,0.0,M,,*65
$GPGGA,000345.000,5013.261,N,01706.420,E,1,09,1.0,545.840,M,0.0,M,,*6A
$GPGGA,000346.000,5013.249,N,01706.417,E,1,09,1.0,546.500,M,0.0,M,,*6D
$GPGGA,000347.000,5013.238,N,01706.410,E,1,09,1.0,547.140,M,0.0,M,,*6C
$GPGGA,000348.000,5013.228,N,01706.400,E,1,08,1.2,548.500,M,0.0,M,,*6F
$GPGGA,000349.000,5013.218,N,01706.391,E,1,09,1.0,550.040,M,0.0,M,,*69
$GPGGA,000350.000,5013.208,N,01706.383,E,1,09,1.0,550.160,M,0.0,M,,*60
$GPGGA,000351.000,5013.197,N,01706.379,E,1,09,1.0,549.860,M,0.0,M,,*60
$GPGGA,000352.000,5013.186,N,01706.374,E,1,09,1.0,550.010,M,0.0,M,,*69
$GPGGA,000353.000,5013.176,N,01706.369,E,1,09,1.0,549.720,M,0.0,M,,*67
$GPGGA,000354.000,5013.165,N,01706.364,E,1,09,1.0,549.720,M,0.0,M,,*6F
$GPGGA,000355.000,5013.156,N,01706.359,E,1,09,1.0,549.960,M,0.0,M,,*6A
$GPGGA,000356.000,5013.147,N,01706.356,E,1,09,1.0,550.370,M,0.0,M,,*65
$GPGGA,000357.000,5013.137,N,01706.352,E,1,09,1.0,551.000,M,0.0,M,,*62
$GPGGA,000358.000,5013.127,N,01706.349,E,1,09,1.0,551.830,M,0.0,M,,*6D
$GPGGA,000359.000,5013.118,N,01706.348,E,1,09,1.0,552.520,M,0.0,M,,*6E
$GPGGA,000400.000,5013.109,N,01706.348,E,1,09,1.0,553.280,M,0.0,M,,*69
$GPGGA,000401.000,5013.099,N,01706.349,E,1,09,1.0,553.930,M,0.0,M,,*61
$GPGGA,000402.000,5013.090,N,01706.351,E,1,09,1.0,554.720,M,0.0,M,,*6A
$GPGGA,000403.000,5013.080,N,01706.355,E,1,09,1.0,555.780,M,0.0,M,,*65
$GPGGA,000404.000,5013.070,N,01706.360,E,1,09,1.0,556.850,M,0.0,M,,*6A
$GPGGA,000405.000,5013.061,N,01706.363,E,1,09,1.0,557.940,M,0.0,M,,*69
$GPGGA,000406.000,5013.053,N,01706.363,E,1,09,1.0,558.850,M,0.0,M,,*64
$GPGGA,000407.000,5013.044,N,01706.361,E,1,09,1.0,559.290,M,0.0,M,,*66
$GPGGA,000408.000,5013.035,N,01706.358,E,1,09,1.0,559.830,M,0.0,M,,*65
$GPGGA,000409.000,5013.026,N,01706.354,E,1,09,1.0,560.020,M,0.0,M,,*69
$GPGGA,000410.000,5013.018,N,01706.349,E,1,09,1.0,560.230,M,0.0,M,,*63
$GPGGA,000411.000,5013.010,N,01706.341,E,1,09,1.0,560.440,M,0.0,M,,*63
$GPGGA,000412.000,5013.003,N,01706.332,E,1,09,1.0,560.900,M,0.0,M,,*6F
$GPGGA,000413.000,5012.997,N,01706.323,E,1,09,1.0,561.360,M,0.0,M,,*66
$GPGGA,000414.000,5012.990,N,01706.314,E,1,09,1.0,561.930,M,0.0,M,,*6D
$GPGGA,000415.000,5012.983,N,01706.304,E,1,09,1.0,562.430,M,0.0,M,,*61
$GPGGA,000416.000,5012.977,N,01706.295,E,1,09,1.0,563.200,M,0.0,M,,*64
$GPGGA,000417.000,5012.970,N,01706.286,E,1,09,1.0,564.140,M,0.0,M,,*60
$GPGGA,000418.000,5012.964,N,01706.275,E,1,09,1.0,565.220,M,0.0,M,,*62
$GPGGA,000419.000,5012.958,N,01706.264,E,1,09,1.0,566.740,M,0.0,M,,*6C
$GPZDA,000419.000,09,03,2019,00,00*5A
