$GPGGA,235600.000,5013.476,N,01710.477,E,1,09,0.8,468.770,M,0.0,M,,*64
$GPGGA,235601.000,5013.476,N,01710.479,E,1,09,0.8,471.120,M,0.0,M,,*60
$GPGGA,235602.000,5013.476,N,01710.478,E,1,09,0.8,472.690,M,0.0,M,,*6D
$GPGGA,235603.000,5013.477,N,01710.478,E,1,08,1.0,471.470,M,0.0,M,,*6A
$GPGGA,235604.000,5013.478,N,01710.478,E,1,09,0.8,468.860,M,0.0,M,,*6F
$GPGGA,235605.000,5013.476,N,01710.478,E,1,05,3.6,470.030,M,0.0,M,,*65
$GPGGA,235606.000,5013.474,N,01710.480,E,1,07,1.0,467.810,M,0.0,M,,*69
$GPGGA,235607.000,5013.475,N,01710.481,E,1,07,1.0,466.400,M,0.0,M,,*64
$GPGGA,235608.000,5013.479,N,01710.482,E,1,05,3.8,469.950,M,0.0,M,,*6B
$GPGGA,235609.000,5013.481,N,01710.483,E,1,05,3.8,473.910,M,0.0,M,,*63
$GPGGA,235610.000,5013.481,N,01710.480,E,1,06,2.2,471.780,M,0.0,M,,*65
$GPGGA,235611.000,5013.483,N,01710.481,E,1,07,1.6,480.670,M,0.0,M,,*61
$GPGGA,235612.000,5013.485,N,01710.482,E,1,06,5.2,490.140,M,0.0,M,,*63
$GPGGA,235613.000,5013.487,N,01710.484,E,1,05,2.0,495.520,M,0.0,M,,*67
$GPGGA,235614.000,5013.482,N,01710.482,E,1,07,1.4,483.820,M,0.0,M,,*6C
$GPGGA,235615.000,5013.483,N,01710.481,E,1,08,1.0,484.490,M,0.0,M,,*64
$GPGGA,235616.000,5013.483,N,01710.480,E,1,09,0.8,481.010,M,0.0,M,,*67
$GPGGA,235617.000,5013.483,N,01710.480,E,1,09,0.8,475.550,M,0.0,M,,*6C
$GPGGA,235618.000,5013.482,N,01710.480,E,1,09,0.8,473.170,M,0.0,M,,*62
$GPGGA,235619.000,5013.480,N,01710.482,E,1,09,0.8,470.720,M,0.0,M,,*63
$GPGGA,235620.000,5013.479,N,01710.481,E,1,08,0.8,470.780,M,0.0,M,,*67
$GPGGA,235621.000,5013.480,N,01710.480,E,1,06,2.0,470.840,M,0.0,M,,*66
$GPGGA,235622.000,5013.479,N,01710.479,E,1,07,1.6,468.590,M,0.0,M,,*68
$GPGGA,235623.000,5013.481,N,01710.478,E,1,07,1.6,472.670,M,0.0,M,,*69
$GPGGA,235624.000,5013.480,N,01710.477,E,1,07,1.6,468.990,M,0.0,M,,*6A
$GPGGA,235625.000,5013.478,N,01710.478,E,1,07,1.6,464.550,M,0.0,M,,*6F
$GPGGA,235626.000,5013.477,N,01710.479,E,1,06,2.2,461.170,M,0.0,M,,*67
$GPGGA,235627.000,5013.479,N,01710.478,E,1,07,1.2,464.910,M,0.0,M,,*60
$GPGGA,235628.000,5013.479,N,01710.475,E,1,07,1.2,463.680,M,0.0,M,,*63
$GPGGA,235629.000,5013.479,N,01710.474,E,1,07,1.2,462.730,M,0.0,M,,*68
$GPGGA,235630.000,5013.479,N,01710.479,E,1,07,1.2,464.950,M,0.0,M,,*63
$GPGGA,235631.000,5013.479,N,01710.481,E,1,07,1.0,468.690,M,0.0,M,,*68
$GPGGA,235632.000,5013.479,N,01710.483,E,1,08,1.0,466.940,M,0.0,M,,*6A
$GPGGA,235633.000,5013.479,N,01710.483,E,1,09,0.8,468.290,M,0.0,M,,*6B
$GPGGA,235634.000,5013.480,N,01710.481,E,1,09,0.8,468.700,M,0.0,M,,*64
$GPGGA,235635.000,5013.479,N,01710.480,E,1,08,0.8,468.470,M,0.0,M,,*67
$GPGGA,235636.000,5013.479,N,01710.479,E,1,08,0.8,467.660,M,0.0,M,,*6E
$GPGGA,235637.000,5013.480,N,01710.477,E,1,08,0.8,469.320,M,0.0,M,,*68
$GPGGA,235638.000,5013.480,N,01710.479,E,1,09,0.8,468.520,M,0.0,M,,*6F
$GPGGA,235639.000,5013.481,N,01710.480,E,1,09,0.8,470.420,M,0.0,M,,*61
$GPGGA,235640.000,5013.482,N,01710.482,E,1,09,0.8,472.490,M,0.0,M,,*67
$GPGGA,235641.000,5013.481,N,01710.482,E,1,07,1.2,469.570,M,0.0,M,,*65
$GPGGA,235642.000,5013.480,N,01710.480,E,1,07,1.2,466.710,M,0.0,M,,*6E
$GPGGA,235643.000,5013.481,N,01710.479,E,1,08,1.0,465.290,M,0.0,M,,*6B
$GPGGA,235644.000,5013.481,N,01710.480,E,1,07,1.0,466.020,M,0.0,M,,*6F
$GPGGA,235645.000,5013.482,N,01710.482,E,1,05,2.0,466.760,M,0.0,M,,*6D
$GPGGA,235646.000,5013.483,N,01710.484,E,1,05,2.4,473.840,M,0.0,M,,*64
$GPGGA,235647.000,5013.486,N,01710.483,E,1,05,5.4,482.280,M,0.0,M,,*68
$GPGGA,235648.000,5013.489,N,01710.484,E,1,05,1.6,491.740,M,0.0,M,,*62
$GPGGA,235649.000,5013.490,N,01710.484,E,1,06,1.6,494.320,M,0.0,M,,*6F
$GPGGA,235650.000,5013.488,N,01710.486,E,1,07,1.0,490.150,M,0.0,M,,*6A
$GPGGA,235651.000,5013.486,N,01710.487,E,1,08,0.8,485.270,M,0.0,M,,*67
$GPGGA,235652.000,5013.484,N,01710.486,E,1,07,0.8,480.220,M,0.0,M,,*68
$GPGGA,235653.000,5013.484,N,01710.487,E,1,08,0.8,479.460,M,0.0,M,,*63
$GPGGA,235654.000,5013.483,N,01710.488,E,1,07,1.0,477.980,M,0.0,M,,*67
$GPGGA,235655.000,5013.482,N,01710.487,E,1,07,1.0,475.590,M,0.0,M,,*67
$GPGGA,235656.000,5013.482,N,01710.484,E,1,08,1.0,473.810,M,0.0,M,,*6B
$GPGGA,235657.000,5013.482,N,01710.482,E,1,07,1.0,472.030,M,0.0,M,,*68
$GPGGA,235658.000,5013.481,N,01710.480,E,1,06,1.0,471.460,M,0.0,M,,*65
$GPGGA,235659.000,5013.480,N,01710.479,E,1,08,1.0,471.520,M,0.0,M,,*68
$GPGGA,235700.000,5013.477,N,01710.477,E,1,09,0.8,467.060,M,0.0,M,,*6D
$GPGGA,235701.000,5013.476,N,01710.476,E,1,09,0.8,459.810,M,0.0,M,,*6E
$GPGGA,235702.000,5013.475,N,01710.475,E,1,09,0.8,458.000,M,0.0,M,,*65
$GPGGA,235703.000,5013.477,N,01710.476,E,1,09,0.8,465.780,M,0.0,M,,*64
$GPGGA,235704.000,5013.478,N,01710.475,E,1,08,1.0,468.390,M,0.0,M,,*6F
$GPGGA,235705.000,5013.478,N,01710.474,E,1,08,1.0,469.280,M,0.0,M,,*6E
$GPGGA,235706.000,5013.480,N,01710.473,E,1,09,0.8,471.900,M,0.0,M,,*6F
$GPGGA,235707.000,5013.479,N,01710.474,E,1,09,0.8,472.800,M,0.0,M,,*6D
$GPGGA,235708.000,5013.479,N,01710.476,E,1,09,0.8,471.610,M,0.0,M,,*6C
$GPGGA,235709.000,5013.479,N,01710.480,E,1,08,1.4,474.900,M,0.0,M,,*63
$GPGGA,235710.000,5013.481,N,01710.479,E,1,09,0.8,475.980,M,0.0,M,,*6F
$GPGGA,235711.000,5013.480,N,01710.481,E,1,09,0.8,475.220,M,0.0,M,,*69
$GPGGA,235712.000,5013.477,N,01710.481,E,1,08,0.8,470.980,M,0.0,M,,*67
$GPGGA,235713.000,5013.474,N,01710.480,E,1,09,0.8,466.580,M,0.0,M,,*6E
$GPGGA,235714.000,5013.474,N,01710.480,E,1,07,1.4,465.030,M,0.0,M,,*67
$GPGGA,235715.000,5013.473,N,01710.477,E,1,09,0.8,462.900,M,0.0,M,,*67
$GPGGA,235716.000,5013.471,N,01710.481,E,1,09,0.8,466.720,M,0.0,M,,*67
$GPGGA,235717.000,5013.470,N,01710.481,E,1,09,0.8,465.880,M,0.0,M,,*61
$GPGGA,235718.000,5013.468,N,01710.477,E,1,08,1.4,467.410,M,0.0,M,,*65
$GPGGA,235719.000,5013.466,N,01710.472,E,1,09,0.8,468.650,M,0.0,M,,*6A
$GPGGA,235720.000,5013.465,N,01710.469,E,1,09,0.8,467.660,M,0.0,M,,*65
$GPGGA,235721.000,5013.463,N,01710.466,E,1,09,0.8,463.500,M,0.0,M,,*6C
$GPGGA,235722.000,5013.462,N,01710.460,E,1,07,0.8,462.250,M,0.0,M,,*65
$GPGGA,235723.000,5013.464,N,01710.455,E,1,09,0.8,456.880,M,0.0,M,,*6A
$GPGGA,235724.000,5013.464,N,01710.449,E,1,08,0.8,455.530,M,0.0,M,,*64
$GPGGA,235725.000,5013.464,N,01710.444,E,1,09,0.8,456.390,M,0.0,M,,*66
$GPGGA,235726.000,5013.463,N,01710.440,E,1,09,0.8,456.400,M,0.0,M,,*68
$GPGGA,235727.000,5013.463,N,01710.435,E,1,10,0.8,457.430,M,0.0,M,,*61
$GPGGA,235728.000,5013.462,N,01710.432,E,1,10,0.8,456.590,M,0.0,M,,*62
$GPGGA,235729.000,5013.461,N,01710.428,E,1,10,0.8,456.150,M,0.0,M,,*63
$GPGGA,235730.000,5013.460,N,01710.424,E,1,10,0.8,456.640,M,0.0,M,,*60
$GPGGA,235731.000,5013.459,N,01710.418,E,1,10,0.8,456.260,M,0.0,M,,*62
$GPGGA,235732.000,5013.458,N,01710.415,E,1,10,0.8,455.140,M,0.0,M,,*6F
$GPGGA,235733.000,5013.456,N,01710.410,E,1,10,0.8,457.490,M,0.0,M,,*6F
$GPGGA,235734.000,5013.454,N,01710.405,E,1,09,0.8,457.360,M,0.0,M,,*6E
$GPGGA,235735.000,5013.454,N,01710.403,E,1,10,0.8,455.410,M,0.0,M,,*63
$GPGGA,235736.000,5013.454,N,01710.401,E,1,10,0.8,455.740,M,0.0,M,,*64
$GPGGA,235737.000,5013.455,N,01710.397,E,1,10,0.8,461.000,M,0.0,M,,*68
$GPGGA,235738.000,5013.455,N,01710.396,E,1,10,0.8,460.730,M,0.0,M,,*63
$GPGGA,235739.000,5013.455,N,01710.396,E,1,09,0.8,460.400,M,0.0,M,,*6A
$GPGGA,235740.000,5013.455,N,01710.397,E,1,09,0.8,461.480,M,0.0,M,,*6C
$GPGGA,235741.000,5013.454,N,01710.395,E,1,10,0.8,465.360,M,0.0,M,,*6B
$GPGGA,235742.000,5013.454,N,01710.395,E,1,08,0.8,469.440,M,0.0,M,,*68
$GPGGA,235743.000,5013.453,N,01710.397,E,1,10,0.8,469.740,M,0.0,M,,*66
$GPGGA,235744.000,5013.451,N,01710.398,E,1,10,0.8,471.850,M,0.0,M,,*6B
$GPGGA,235745.000,5013.449,N,01710.400,E,1,10,0.8,472.800,M,0.0,M,,*63
$GPGGA,235746.000,5013.446,N,01710.395,E,1,10,0.8,467.890,M,0.0,M,,*69
$GPGGA,235747.000,5013.448,N,01710.394,E,1,10,0.8,461.400,M,0.0,M,,*64
$GPGGA,235748.000,5013.448,N,01710.393,E,1,10,0.8,457.620,M,0.0,M,,*69
$GPGGA,235749.000,5013.449,N,01710.392,E,1,00,0.8,458.310,M,0.0,M,,*60
$GPGGA,235750.000,5013.449,N,01710.396,E,1,10,0.8,456.330,M,0.0,M,,*61
$GPGGA,235751.000,5013.449,N,01710.401,E,1,10,0.8,462.140,M,0.0,M,,*6B
$GPGGA,235752.000,5013.450,N,01710.402,E,1,10,0.8,462.670,M,0.0,M,,*67
$GPGGA,235753.000,5013.450,N,01710.402,E,1,10,0.8,462.750,M,0.0,M,,*65
$GPGGA,235754.000,5013.451,N,01710.403,E,1,09,0.8,461.110,M,0.0,M,,*6B
$GPGGA,235755.000,5013.452,N,01710.401,E,1,10,0.8,452.280,M,0.0,M,,*69
$GPGGA,235756.000,5013.452,N,01710.399,E,1,10,0.8,448.850,M,0.0,M,,*60
$GPGGA,235757.000,5013.454,N,01710.396,E,1,09,0.8,444.780,M,0.0,M,,*6E
$GPGGA,235758.000,5013.454,N,01710.396,E,1,10,0.8,442.540,M,0.0,M,,*61
$GPGGA,235759.000,5013.454,N,01710.396,E,1,09,0.8,441.300,M,0.0,M,,*69
$GPGGA,235800.000,5013.453,N,01710.395,E,1,10,0.8,446.850,M,0.0,M,,*6F
$GPGGA,235801.000,5013.453,N,01710.396,E,1,10,0.8,443.950,M,0.0,M,,*69
$GPGGA,235802.000,5013.455,N,01710.394,E,1,10,0.8,439.990,M,0.0,M,,*6F
$GPGGA,235803.000,5013.454,N,01710.393,E,1,10,0.8,445.600,M,0.0,M,,*65
$GPGGA,235804.000,5013.453,N,01710.392,E,1,10,0.8,447.490,M,0.0,M,,*6D
$GPGGA,235805.000,5013.454,N,01710.392,E,1,10,0.8,451.700,M,0.0,M,,*66
$GPGGA,235806.000,5013.455,N,01710.392,E,1,09,0.8,454.440,M,0.0,M,,*6E
$GPGGA,235807.000,5013.454,N,01710.394,E,1,07,1.4,454.140,M,0.0,M,,*6E
$GPGGA,235808.000,5013.455,N,01710.394,E,1,10,0.8,448.270,M,0.0,M,,*66
$GPGGA,235809.000,5013.456,N,01710.396,E,1,10,0.8,445.410,M,0.0,M,,*6B
$GPGGA,235810.000,5013.454,N,01710.397,E,1,10,0.8,447.920,M,0.0,M,,*6C
$GPGGA,235811.000,5013.452,N,01710.398,E,1,10,0.8,451.430,M,0.0,M,,*6F
$GPGGA,235812.000,5013.448,N,01710.402,E,1,09,0.8,450.850,M,0.0,M,,*60
$GPGGA,235813.000,5013.447,N,01710.403,E,1,09,0.8,456.300,M,0.0,M,,*67
$GPGGA,235814.000,5013.449,N,01710.402,E,1,10,0.8,463.880,M,0.0,M,,*62
$GPGGA,235815.000,5013.450,N,01710.402,E,1,10,0.8,471.180,M,0.0,M,,*61
$GPGGA,235816.000,5013.452,N,01710.404,E,1,10,0.8,468.100,M,0.0,M,,*66
$GPGGA,235817.000,5013.451,N,01710.405,E,1,10,0.8,468.850,M,0.0,M,,*69
$GPGGA,235818.000,5013.450,N,01710.404,E,1,10,0.8,467.920,M,0.0,M,,*6F
$GPGGA,235819.000,5013.453,N,01710.405,E,1,10,0.8,466.010,M,0.0,M,,*67
$GPGGA,235820.000,5013.453,N,01710.405,E,1,10,0.8,467.520,M,0.0,M,,*6A
$GPGGA,235821.000,5013.454,N,01710.402,E,1,10,0.8,461.600,M,0.0,M,,*6C
$GPGGA,235822.000,5013.455,N,01710.399,E,1,10,0.8,457.770,M,0.0,M,,*68
$GPGGA,235823.000,5013.454,N,01710.395,E,1,10,0.8,457.350,M,0.0,M,,*62
$GPGGA,235824.000,5013.451,N,01710.393,E,1,10,0.8,469.760,M,0.0,M,,*6C
$GPGGA,235825.000,5013.449,N,01710.393,E,1,10,0.8,476.180,M,0.0,M,,*62
$GPGGA,235826.000,5013.449,N,01710.394,E,1,10,0.8,476.050,M,0.0,M,,*6A
$GPGGA,235827.000,5013.449,N,01710.397,E,1,09,0.8,467.700,M,0.0,M,,*62
$GPGGA,235828.000,5013.450,N,01710.397,E,1,08,1.2,467.770,M,0.0,M,,*68
$GPGGA,235829.000,5013.453,N,01710.395,E,1,08,1.0,458.990,M,0.0,M,,*66
$GPGGA,235830.000,5013.454,N,01710.394,E,1,09,0.8,447.570,M,0.0,M,,*6C
$GPGGA,235831.000,5013.453,N,01710.395,E,1,10,0.8,442.560,M,0.0,M,,*67
$GPGGA,235832.000,5013.450,N,01710.398,E,1,10,0.8,445.160,M,0.0,M,,*69
$GPGGA,235833.000,5013.451,N,01710.397,E,1,10,0.8,446.430,M,0.0,M,,*65
$GPGGA,235834.000,5013.451,N,01710.396,E,1,10,0.8,446.300,M,0.0,M,,*67
$GPGGA,235835.000,5013.451,N,01710.395,E,1,09,1.0,458.780,M,0.0,M,,*67
$GPGGA,235836.000,5013.452,N,01710.394,E,1,09,0.8,461.080,M,0.0,M,,*62
$GPGGA,235837.000,5013.446,N,01710.396,E,1,10,0.8,465.400,M,0.0,M,,*64
$GPGGA,235838.000,5013.444,N,01710.397,E,1,10,0.8,463.740,M,0.0,M,,*69
$GPGGA,235839.000,5013.445,N,01710.396,E,1,10,0.8,464.110,M,0.0,M,,*6C
$GPGGA,235840.000,5013.445,N,01710.394,E,1,10,0.8,457.600,M,0.0,M,,*66
$GPGGA,235841.000,5013.446,N,01710.395,E,1,10,0.8,456.180,M,0.0,M,,*6B
$GPGGA,235842.000,5013.448,N,01710.394,E,1,10,0.8,454.410,M,0.0,M,,*69
$GPGGA,235843.000,5013.449,N,01710.392,E,1,10,0.8,459.420,M,0.0,M,,*61
$GPGGA,235844.000,5013.449,N,01710.393,E,1,10,0.8,460.680,M,0.0,M,,*65
$GPGGA,235845.000,5013.450,N,01710.394,E,1,10,0.8,460.960,M,0.0,M,,*6A
$GPGGA,235846.000,5013.450,N,01710.394,E,1,10,0.8,463.330,M,0.0,M,,*65
$GPGGA,235847.000,5013.451,N,01710.394,E,1,09,0.8,462.570,M,0.0,M,,*6E
$GPGGA,235848.000,5013.451,N,01710.398,E,1,09,0.8,462.820,M,0.0,M,,*65
$GPGGA,235849.000,5013.452,N,01710.399,E,1,09,0.8,462.800,M,0.0,M,,*64
$GPGGA,235850.000,5013.455,N,01710.406,E,1,04,1.4,468.140,M,0.0,M,,*6D
$GPGGA,235851.000,5013.454,N,01710.405,E,1,08,1.0,460.880,M,0.0,M,,*6B
$GPGGA,235852.000,5013.455,N,01710.406,E,1,08,1.0,461.070,M,0.0,M,,*6C
$GPGGA,235853.000,5013.454,N,01710.408,E,1,08,1.0,459.990,M,0.0,M,,*6E
$GPGGA,235854.000,5013.452,N,01710.417,E,1,08,1.0,459.880,M,0.0,M,,*61
$GPGGA,235855.000,5013.448,N,01710.433,E,1,08,1.0,459.810,M,0.0,M,,*64
$GPGGA,235856.000,5013.450,N,01710.448,E,1,08,1.0,460.050,M,0.0,M,,*64
$GPGGA,235857.000,5013.458,N,01710.456,E,1,07,1.2,459.890,M,0.0,M,,*61
$GPGGA,235858.000,5013.466,N,01710.462,E,1,07,1.2,460.100,M,0.0,M,,*6E
$GPGGA,235859.000,5013.474,N,01710.469,E,1,08,1.0,460.590,M,0.0,M,,*67
$GPGGA,235900.000,5013.482,N,01710.472,E,1,08,1.0,460.790,M,0.0,M,,*6B
$GPGGA,235901.000,5013.490,N,01710.477,E,1,08,1.0,460.830,M,0.0,M,,*69
$GPGGA,235902.000,5013.493,N,01710.487,E,1,08,1.0,460.860,M,0.0,M,,*63
$GPGGA,235903.000,5013.493,N,01710.500,E,1,08,1.0,460.740,M,0.0,M,,*61
$GPGGA,235904.000,5013.487,N,01710.507,E,1,08,1.0,460.160,M,0.0,M,,*60
$GPGGA,235905.000,5013.479,N,01710.498,E,1,08,1.0,461.000,M,0.0,M,,*61
$GPGGA,235906.000,5013.469,N,01710.490,E,1,08,1.0,461.780,M,0.0,M,,*64
$GPGGA,235907.000,5013.458,N,01710.484,E,1,08,1.0,461.890,M,0.0,M,,*6C
$GPGGA,235908.000,5013.446,N,01710.479,E,1,08,1.0,462.000,M,0.0,M,,*6C
$GPGGA,235909.000,5013.436,N,01710.473,E,1,07,1.2,462.890,M,0.0,M,,*6C
$GPGGA,235910.000,5013.423,N,01710.465,E,1,08,1.0,462.640,M,0.0,M,,*69
$GPGGA,235911.000,5013.412,N,01710.460,E,1,08,1.0,463.270,M,0.0,M,,*69
$GPGGA,235912.000,5013.402,N,01710.454,E,1,07,1.2,463.640,M,0.0,M,,*66
$GPGGA,235913.000,5013.392,N,01710.448,E,1,08,1.0,464.840,M,0.0,M,,*60
$GPGGA,235914.000,5013.384,N,01710.439,E,1,08,1.0,465.990,M,0.0,M,,*6B
$GPGGA,235915.000,5013.376,N,01710.429,E,1,07,1.2,466.180,M,0.0,M,,*61
$GPGGA,235916.000,5013.370,N,01710.419,E,1,07,1.2,467.610,M,0.0,M,,*68
$GPGGA,235917.000,5013.365,N,01710.413,E,1,08,1.0,468.670,M,0.0,M,,*63
$GPGGA,235918.000,5013.360,N,01710.405,E,1,08,1.0,468.920,M,0.0,M,,*64
$GPGGA,235919.000,5013.355,N,01710.396,E,1,08,1.0,469.930,M,0.0,M,,*6E
$GPGGA,235920.000,5013.349,N,01710.388,E,1,08,1.0,471.400,M,0.0,M,,*61
$GPGGA,235921.000,5013.343,N,01710.381,E,1,08,1.0,473.260,M,0.0,M,,*61
$GPGGA,235922.000,5013.337,N,01710.375,E,1,08,1.0,475.170,M,0.0,M,,*6E
$GPGGA,235923.000,5013.331,N,01710.371,E,1,07,1.2,477.130,M,0.0,M,,*66
$GPGGA,235924.000,5013.324,N,01710.367,E,1,07,1.2,478.860,M,0.0,M,,*61
$GPGGA,235925.000,5013.318,N,01710.363,E,1,07,1.2,480.250,M,0.0,M,,*65
$GPGGA,235926.000,5013.311,N,01710.360,E,1,07,1.2,481.240,M,0.0,M,,*6C
$GPGGA,235927.000,5013.305,N,01710.357,E,1,08,1.0,482.110,M,0.0,M,,*64
$GPGGA,235928.000,5013.298,N,01710.356,E,1,08,1.0,482.900,M,0.0,M,,*66
$GPGGA,235929.000,5013.292,N,01710.353,E,1,08,1.0,483.710,M,0.0,M,,*66
$GPGGA,235930.000,5013.285,N,01710.350,E,1,08,1.0,484.710,M,0.0,M,,*6C
$GPGGA,235931.000,5013.279,N,01710.345,E,1,08,1.0,485.870,M,0.0,M,,*62
$GPGGA,235932.000,5013.273,N,01710.339,E,1,08,1.0,486.930,M,0.0,M,,*66
$GPGGA,235933.000,5013.268,N,01710.331,E,1,08,1.0,487.680,M,0.0,M,,*60
$GPGGA,235934.000,5013.263,N,01710.322,E,1,08,1.0,488.910,M,0.0,M,,*67
$GPGGA,235935.000,5013.258,N,01710.315,E,1,07,1.2,490.010,M,0.0,M,,*67
$GPGGA,235936.000,5013.252,N,01710.308,E,1,08,1.0,491.170,M,0.0,M,,*69
$GPGGA,235937.000,5013.249,N,01710.298,E,1,08,1.0,491.980,M,0.0,M,,*6D
$GPGGA,235938.000,5013.249,N,01710.288,E,1,08,1.0,492.670,M,0.0,M,,*60
$GPGGA,235939.000,5013.255,N,01710.278,E,1,08,1.0,492.730,M,0.0,M,,*66
$GPGGA,235940.000,5013.262,N,01710.268,E,1,08,1.0,492.360,M,0.0,M,,*6C
$GPGGA,235941.000,5013.271,N,01710.254,E,1,08,1.0,491.990,M,0.0,M,,*66
$GPGGA,235942.000,5013.280,N,01710.239,E,1,08,1.0,491.790,M,0.0,M,,*6E
$GPGGA,235943.000,5013.289,N,01710.224,E,1,08,1.0,491.730,M,0.0,M,,*60
$GPGGA,235944.000,5013.297,N,01710.209,E,1,08,1.0,491.700,M,0.0,M,,*64
$GPGGA,235945.000,5013.306,N,01710.194,E,1,09,0.8,491.180,M,0.0,M,,*6D
$GPGGA,235946.000,5013.318,N,01710.178,E,1,09,0.8,490.080,M,0.0,M,,*63
$GPGGA,235947.000,5013.331,N,01710.160,E,1,09,0.8,488.670,M,0.0,M,,*60
$GPGGA,235948.000,5013.347,N,01710.142,E,1,09,0.8,486.700,M,0.0,M,,*66
$GPGGA,235949.000,5013.366,N,01710.122,E,1,09,0.8,483.980,M,0.0,M,,*61
$GPGGA,235950.000,5013.388,N,01710.104,E,1,09,0.8,480.470,M,0.0,M,,*6C
$GPGGA,235951.000,5013.412,N,01710.096,E,1,09,0.8,477.550,M,0.0,M,,*68
$GPGGA,235952.000,5013.429,N,01710.086,E,1,09,0.8,475.250,M,0.0,M,,*67
$GPGGA,235953.000,5013.447,N,01710.063,E,1,09,0.8,471.340,M,0.0,M,,*61
$GPGGA,235954.000,5013.458,N,01710.027,E,1,09,0.8,470.250,M,0.0,M,,*69
$GPGGA,235955.000,5013.469,N,01709.996,E,1,09,0.8,469.600,M,0.0,M,,*68
$GPGGA,235956.000,5013.480,N,01709.968,E,1,09,0.8,469.250,M,0.0,M,,*6C
$GPGGA,235957.000,5013.489,N,01709.949,E,1,09,0.8,470.300,M,0.0,M,,*6B
$GPGGA,235958.000,5013.493,N,01709.944,E,1,09,0.8,470.670,M,0.0,M,,*60
$GPGGA,235959.000,5013.498,N,01709.946,E,1,09,0.8,470.720,M,0.0,M,,*6C
$GPZDA,000000.000,09,03,2019,00,00*56
