$GPGGA,093156.000,5333.4037,N,00951.9344,E,1,06,1.7,47.5,M,46.0,M,,0000*61
$GPGSA,A,3,08,29,27,28,26,24,,,,,,,3.2,1.7,2.7*3E
$GPRMC,093156.500,A,5333.4037,N,00951.9345,E,0.20,171.41,170807,,,A*6A
$GPVTG,171.41,T,,M,0.20,N,0.4,K,A*09
$GPGGA,093156.500,5333.4037,N,00951.9345,E,1,06,1.7,47.8,M,46.0,M,,0000*68
$GPGSA,A,3,08,29,27,28,26,24,,,,,,,3.2,1.7,2.7*3E
$GPRMC,093156.750,A,5333.4037,N,00951.9346,E,0.12,169.85,170807,,,A*6E
$GPVTG,169.85,T,,M,0.12,N,0.2,K,A*0F
$GPGGA,093156.750,5333.4037,N,00951.9346,E,1,06,1.7,47.9,M,46.0,M,,0000*6D
$GPGSA,A,3,08,29,27,28,26,24,,,,,,,3.2,1.7,2.7*3E
$GPRMC,093157.000,A,5333.4037,N,00951.9346,E,0.21,167.32,170807,,,A*6F
$GPVTG,167.32,T,,M,0.21,N,0.4,K,A*0B
$GPGGA,093157.000,5333.4037,N,00951.9346,E,1,06,1.7,48.0,M,46.0,M,,0000*68
$GPGSA,A,3,08,29,27,28,26,24,,,,,,,3.2,1.7,2.7*3E
$GPRMC,093157.250,A,5333.4037,N,00951.9346,E,0.19,165.43,170807,,,A*67
$GPVTG,165.43,T,,M,0.19,N,0.4,K,A*04
$GPGGA,093157.250,5333.4037,N,00951.9346,E,1,06,1.7,48.1,M,46.0,M,,0000*6E
$GPGSA,A,3,08,29,27,28,26,24,,,,,,,3.2,1.7,2.7*3E
$GPRMC,093157.500,A,5333.4037,N,00951.9347,E,0.06,164.40,170807,,,A*68
$GPVTG,164.40,T,,M,0.06,N,0.1,K,A*0D
$GPGGA,093157.500,5333.4037,N,00951.9347,E,1,06,1.7,48.2,M,46.0,M,,0000*6E
$GPGSA,A,3,08,29,27,28,26,24,,,,,,,3.2,1.7,2.7*3E
$GPRMC,093157.750,A,5333.4037,N,00951.9346,E,0.15,168.42,170807,,,A*62
$GPVTG,168.42,T,,M,0.15,N,0.3,K,A*03
$GPGGA,093157.750,5333.4037,N,00951.9346,E,1,06,1.7,48.3,M,46.0,M,,0000*69
$GPRMC,093158.250,A,5333.4037,N,00951.9347,E,0.24,181.89,170807,,,A*6B
$GPVTG,181.89,T,,M,0.24,N,0.4,K,A*06
$GPGGA,093158.250,5333.4037,N,00951.9347,E,1,06,1.7,48.4,M,46.0,M,,0000*65
$GPRMC,093158.500,A,5333.4037,N,00951.9347,E,0.09,180.87,170807,,,A*69
$GPRMC,093158.000,A,5333.4037,N,00951.9346,E,0.28,175.83,170807,,,A*60
$GPVTG,175.83,T,,M,0.28,N,0.5,K,A*0A
$GPGGA,093158.000,5333.4037,N,00951.9346,E,1,06,1.7,48.4,M,46.0,M,,0000*63
$GPGSA,A,3,08,29,27,28,26,24,,,,,,,3.2,1.7,2.7*3E
$GPGSA,A,3,08,29,27,28,26,24,,,,,,,3.2,1.7,2.7*3E
$GPVTG,180.87,T,,M,0.09,N,0.2,K,A*00
$GPGGA,093158.500,5333.4037,N,00951.9347,E,1,06,1.7,48.4,M,46.0,M,,0000*67
$GPGSV,3,3,11,21,14,320,,03,07,025,,19,09,054,*4D
$GPGSA,A,3,08,29,27,28,26,24,,,,,,,3.2,1.7,2.7*3E
$GPRMC,093158.750,A,5333.4037,N,00951.9348,E,0.17,179.45,170807,,,A*66
$GPVTG,179.45,T,,M,0.17,N,0.3,K,A*06
$GPGGA,093158.750,5333.4037,N,00951.9348,E,1,06,1.7,48.5,M,46.0,M,,0000*6E
$GPGSA,A,3,08,29,27,28,26,24,,,,,,,3.2,1.7,2.7*3E
$GPRMC,093159.000,A,5333.4037,N,00951.9348,E,0.17,176.82,170807,,,A*61
$GPVTG,176.82,T,,M,0.17,N,0.3,K,A*02
$GPGGA,093159.000,5333.4037,N,00951.9348,E,1,06,1.7,48.7,M,46.0,M,,0000*6F
$GPGSA,A,3,08,29,27,28,26,24,,,,,,,3.2,1.7,2.7*3E
$GPGSV,3,1,11,08,71,074,27,10,57,214,,29,52,291,24,27,44,067,34*74
$GPGSA,A,3,08,29,27,28,26,24,,,,,,,3.2,1.7,2.7*3E
$GPGSV,3,1,11,08,71,074,27,10,57,214,,29,52,291,24,27,44,067,34*74
$GPGGA,093200.500,5333.4037,N,00951.9347,E,1,06,1.7,49.6,M,46.0,M,,0000*6A
$GPGSA,A,3,08,29,27,28,26,24,,,,,,,3.2,1.7,2.7*3E
$GPVTG,202.58,T,,M,0.30,N,0.5,K,A*06
$GPGGA,093200.750,5333.4037,N,00951.9347,E,1,06,1.7,49.6,M,46.0,M,,0000*6D
$GPRMC,093159.750,A,5333.4037,N,00951.9347,E,0.06,181.63,170807,,,A*6B
$GPGSA,A,3,08,29,27,28,26,24,,,,,,,3.2,1.7,2.7*3E
$GPRMC,093159.250,A,5333.4037,N,00951.9348,E,0.09,174.28,170807,,,A*6B
$GPVTG,174.28,T,,M,0.09,N,0.2,K,A*0E
$GPGGA,093159.250,5333.4037,N,00951.9348,E,1,06,1.7,49.0,M,46.0,M,,0000*6E
$GPRMC,093159.500,A,5333.4037,N,00951.9347,E,0.19,177.33,170807,,,A*6E
$GPVTG,177.33,T,,M,0.19,N,0.4,K,A*00
$GPGGA,093159.500,5333.4037,N,00951.9347,E,1,06,1.7,49.4,M,46.0,M,,0000*67
$GPGSA,A,3,08,29,27,28,26,24,,,,,,,3.2,1.7,2.7*3E
$GPGSV,3,1,11,08,71,074,27,10,57,214,,29,52,291,24,27,44,067,34*74
$GPVTG,181.63,T,,M,0.06,N,0.1,K,A*07
$GPGGA,093159.750,5333.4037,N,00951.9347,E,1,06,1.7,49.5,M,46.0,M,,0000*61
$GPGSA,A,3,08,29,27,28,26,24,,,,,,,3.2,1.7,2.7*3E
$GPVTG,229.91,T,,M,0.38,N,0.7,K,A*00
$GPRMC,093200.000,A,5333.4037,N,00951.9348,E,0.05,185.01,170807,,,A*6A
$GPVTG,185.01,T,,M,0.05,N,0.1,K,A*04
$GPGGA,093200.000,5333.4037,N,00951.9348,E,1,06,1.7,49.6,M,46.0,M,,0000*60
$GPGSA,A,3,08,29,27,28,26,24,,,,,,,3.2,1.7,2.7*3E
$GPRMC,093200.250,A,5333.4037,N,00951.9347,E,0.19,189.29,170807,,,A*69
$GPVTG,189.29,T,,M,0.19,N,0.3,K,A*0D
$GPGGA,093202.250,5333.4037,N,00951.9345,E,1,06,1.7,50.1,M,46.0,M,,0000*67
$GPGSA,A,3,08,29,27,28,26,24,,,,,,,3.2,1.7,2.7*3E
$GPRMC,093200.500,A,5333.4037,N,00951.9347,E,0.25,196.46,170807,,,A*63
$GPVTG,196.46,T,,M,0.25,N,0.5,K,A*03
$GPRMC,093200.750,A,5333.4037,N,00951.9347,E,0.30,202.58,170807,,,A*61
$GPRMC,093201.000,A,5333.4037,N,00951.9347,E,0.41,207.46,170807,,,A*6E
$GPVTG,207.46,T,,M,0.41,N,0.8,K,A*07
$GPGGA,093201.000,5333.4037,N,00951.9347,E,1,06,1.7,49.5,M,46.0,M,,0000*6D
$GPGSA,A,3,08,29,27,28,26,24,,,,,,,3.2,1.7,2.7*3E
$GPRMC,093201.250,A,5333.4037,N,00951.9346,E,0.29,213.19,170807,,,A*69
$GPVTG,213.19,T,,M,0.29,N,0.5,K,A*0B
$GPGGA,093201.250,5333.4037,N,00951.9346,E,1,06,1.7,49.5,M,46.0,M,,0000*6B
$GPGSA,A,3,08,29,27,28,26,24,,,,,,,3.2,1.7,2.7*3E
$GPRMC,093201.500,A,5333.4038,N,00951.9346,E,0.52,218.09,170807,,,A*62
$GPVTG,218.09,T,,M,0.52,N,1.0,K,A*09
$GPGGA,093201.500,5333.4038,N,00951.9346,E,1,06,1.7,49.6,M,46.0,M,,0000*65
$GPGSA,A,3,08,29,27,28,26,24,,,,,,,3.2,1.7,2.7*3E
$GPRMC,093201.750,A,5333.4037,N,00951.9345,E,0.49,221.76,170807,,,A*61
$GPVTG,221.76,T,,M,0.49,N,0.9,K,A*09
$GPGGA,093201.750,5333.4037,N,00951.9345,E,1,06,1.7,49.7,M,46.0,M,,0000*6F
$GPGSA,A,3,08,29,27,28,26,24,,,,,,,3.2,1.7,2.7*3E
$GPRMC,093202.000,A,5333.4037,N,00951.9345,E,0.41,226.21,170807,,,A*6D
$GPVTG,226.21,T,,M,0.41,N,0.8,K,A*05
$GPGGA,093202.000,5333.4037,N,00951.9345,E,1,06,1.7,49.8,M,46.0,M,,0000*61
$GPGSA,A,3,08,29,27,28,26,24,,,,,,,3.2,1.7,2.7*3E
$GPRMC,093203.750,A,5333.4037,N,00951.9347,E,0.06,221.34,170807,,,A*6C
$GPRMC,093202.250,A,5333.4037,N,00951.9345,E,0.38,229.91,170807,,,A*60
$GPRMC,093202.500,A,5333.4037,N,00951.9345,E,0.29,233.13,170807,,,A*63
$GPVTG,233.13,T,,M,0.29,N,0.5,K,A*03
$GPGGA,093202.500,5333.4037,N,00951.9345,E,1,06,1.7,50.1,M,46.0,M,,0000*65
$GPGSA,A,3,08,29,27,28,26,24,,,,,,,3.2,1.7,2.7*3E
$GPRMC,093202.750,A,5333.4037,N,00951.9346,E,0.12,233.78,170807,,,A*62
$GPVTG,233.78,T,,M,0.12,N,0.2,K,A*01
$GPGGA,093202.750,5333.4037,N,00951.9346,E,1,06,1.7,50.0,M,46.0,M,,0000*60
$GPGSA,A,3,08,29,27,28,26,24,,,,,,,3.2,1.7,2.7*3E
$GPRMC,093203.000,A,5333.4037,N,00951.9346,E,0.08,231.73,170807,,,A*63
$GPVTG,231.73,T,,M,0.08,N,0.2,K,A*03
$GPGGA,093203.000,5333.4037,N,00951.9346,E,1,06,1.7,49.9,M,46.0,M,,0000*62
$GPGSA,A,3,08,29,27,28,26,24,,,,,,,3.2,1.7,2.7*3E
$GPRMC,093203.250,A,5333.4037,N,00951.9346,E,0.10,227.87,170807,,,A*61
$GPVTG,227.87,T,,M,0.10,N,0.2,K,A*06
$GPGGA,093203.250,5333.4037,N,00951.9346,E,1,06,1.7,49.9,M,46.0,M,,0000*65
$GPGSA,A,3,08,29,27,28,26,24,,,,,,,3.2,1.7,2.7*3E
$GPRMC,093203.500,A,5333.4037,N,00951.9347,E,0.17,224.45,170807,,,A*68
$GPVTG,224.45,T,,M,0.17,N,0.3,K,A*0D
$GPGGA,093203.500,5333.4037,N,00951.9347,E,1,06,1.7,49.9,M,46.0,M,,0000*66
$GPGSA,A,3,08,29,27,28,26,24,,,,,,,3.2,1.7,2.7*3E
$GPGSV,3,1,11,08,71,074,27,10,57,214,,29,52,291,25,27,44,067,34*75
$GPVTG,221.34,T,,M,0.06,N,0.1,K,A*0C
$GPVTG,245.09,T,,M,0.24,N,0.4,K,A*05
$GPGSA,A,3,08,29,27,28,26,24,,,,,,,3.2,1.7,2.7*3E
$GPGGA,093205.750,5333.4037,N,00951.9345,E,1,06,1.7,49.9,M,46.0,M,,0000*65
