$GPZDA,032908,07,08,2004,00,00*41
$GPGGA,032908.379,4231.8291,N,08807.3033,W,1,05,1.6,209.8,M,-34.2,M,0.0,0000*46
$GPGSA,A,3,28,08,11,27,07,,,,,,,,4.9,1.6,4.5*39
$GPRMC,032908.379,A,4231.8291,N,08807.3033,W,0.17,138.92,070804,,*12
$GPVTG,138.92,T,,M,0.17,N,0.3,K*64
$GPZDA,032909,07,08,2004,00,00*40
$GPGGA,032909.379,4231.8291,N,08807.3034,W,1,05,1.6,209.7,M,-34.2,M,0.0,0000*4F
$GPGSA,A,3,28,08,11,27,07,,,,,,,,4.9,1.6,4.5*39
$GPRMC,032909.379,A,4231.8291,N,08807.3034,W,0.18,145.85,070804,,*17
$GPVTG,145.85,T,,M,0.18,N,0.3,K*67
$GPZDA,032910,07,08,2004,00,00*48
$GPGGA,032910.379,4231.8292,N,08807.3036,W,1,05,1.6,209.7,M,-34.2,M,0.0,0000*46
$GPGSA,A,3,28,08,11,27,07,,,,,,,,4.9,1.6,4.5*39
$GPGSV,3,1,09,28,64,316,40,08,60,189,42,11,50,085,46,07,37,246,45*7A
$GPGSV,3,2,09,27,36,171,36,31,18,058,41,26,17,291,00,29,17,282,*7D
$GPGSV,3,3,09,19,16,054,00*4E
$GPRMC,032910.379,A,4231.8292,N,08807.3036,W,0.19,143.25,070804,,*13
$GPVTG,143.25,T,,M,0.19,N,0.3,K*6A
$GPMSS,0,0,0.000000,0,*58
$GPZDA,032911,07,08,2004,00,00*49
$GPGGA,032911.379,4231.8292,N,08807.3036,W,1,05,1.6,209.6,M,-34.2,M,0.0,0000*46
$GPGSA,A,3,28,08,11,27,07,,,,,,,,4.9,1.6,4.6*3A
$GPRMC,032911.379,A,4231.8292,N,08807.3036,W,0.19,145.76,070804,,*12
$GPVTG,145.76,T,,M,0.19,N,0.4,K*6D
$GPZDA,032912,07,08,2004,00,00*4A
$GPGGA,032912.379,4231.8292,N,08807.3037,W,1,05,1.6,209.6,M,-34.2,M,0.0,0000*44
$GPGSA,A,3,28,08,11,27,07,,,,,,,,4.9,1.6,4.6*3A
$GPRMC,032912.379,A,4231.8292,N,08807.3037,W,0.17,141.44,070804,,*1B
$GPVTG,141.44,T,,M,0.17,N,0.3,K*61
$GPZDA,032913,07,08,2004,00,00*4B
$GPGGA,032913.379,4231.8293,N,08807.3038,W,1,05,1.6,209.6,M,-34.2,M,0.0,0000*4B
$GPGSA,A,3,28,08,11,27,07,,,,,,,,4.9,1.6,4.6*3A
$GPRMC,032913.379,A,4231.8293,N,08807.3038,W,0.18,140.40,070804,,*1E
$GPVTG,140.40,T,,M,0.18,N,0.3,K*6B
$GPZDA,032914,07,08,2004,00,00*4C
$GPGGA,032914.379,4231.8293,N,08807.3038,W,1,05,1.6,209.6,M,-34.2,M,0.0,0000*4C
$GPGSA,A,3,28,08,11,27,07,,,,,,,,4.9,1.6,4.6*3A
$GPRMC,032914.379,A,4231.8293,N,08807.3038,W,0.18,142.51,070804,,*1B
$GPVTG,142.51,T,,M,0.18,N,0.3,K*69
$GPZDA,032915,07,08,2004,00,00*4D
$GPGGA,032915.379,4231.8294,N,08807.3038,W,1,05,1.6,209.4,M,-34.2,M,0.0,0000*48
$GPGSA,A,3,28,08,11,27,07,,,,,,,,4.9,1.6,4.6*3A
$GPGSV,3,1,09,28,64,316,41,08,60,189,43,11,50,085,46,07,37,246,46*79
$GPGSV,3,2,09,27,36,171,36,31,18,058,42,26,17,291,00,29,17,282,*7E
$GPGSV,3,3,09,19,16,054,00*4E
$GPRMC,032915.379,A,4231.8294,N,08807.3038,W,0.20,144.06,070804,,*12
$GPVTG,144.06,T,,M,0.20,N,0.4,K*61
$GPMSS,0,0,0.000000,0,*58
$GPZDA,032916,07,08,2004,00,00*4E
$GPGGA,032916.379,4231.8294,N,08807.3037,W,1,05,1.6,209.3,M,-34.2,M,0.0,0000*43
$GPGSA,A,3,28,08,11,27,07,,,,,,,,4.9,1.6,4.6*3A
$GPRMC,032916.379,A,4231.8294,N,08807.3037,W,0.17,137.66,070804,,*18
$GPVTG,137.66,T,,M,0.17,N,0.3,K*60
$GPZDA,032917,07,08,2004,00,00*4F
$GPGGA,032917.379,4231.8295,N,08807.3037,W,1,05,1.6,209.1,M,-34.2,M,0.0,0000*41
$GPGSA,A,3,28,08,11,27,07,,,,,,,,4.9,1.6,4.6*3A
$GPRMC,032917.379,A,4231.8295,N,08807.3037,W,0.19,144.23,070804,,*13
$GPVTG,144.23,T,,M,0.19,N,0.4,K*6C
$GPZDA,032918,07,08,2004,00,00*40
$GPGGA,032918.379,4231.8296,N,08807.3036,W,1,05,1.6,208.9,M,-34.2,M,0.0,0000*45
$GPGSA,A,3,28,08,11,27,07,,,,,,,,4.9,1.6,4.6*3A
$GPRMC,032918.379,A,4231.8296,N,08807.3036,W,0.18,140.35,070804,,*1C
$GPVTG,140.35,T,,M,0.18,N,0.3,K*69
$GPZDA,032919,07,08,2004,00,00*41
$GPGGA,032919.379,4231.8298,N,08807.3035,W,1,05,1.6,208.8,M,-34.2,M,0.0,0000*48
$GPGSA,A,3,28,08,11,27,07,,,,,,,,4.9,1.6,4.6*3A
$GPRMC,032919.379,A,4231.8298,N,08807.3035,W,0.19,143.06,070804,,*12
$GPVTG,143.06,T,,M,0.19,N,0.4,K*6C
$GPZDA,032920,07,08,2004,00,00*4B
$GPGGA,032920.379,4231.8299,N,08807.3034,W,1,05,1.6,208.6,M,-34.2,M,0.0,0000*4C
$GPGSA,A,3,28,08,11,27,07,,,,,,,,4.9,1.6,4.6*3A
$GPGSV,3,1,09,28,64,317,40,08,60,188,43,11,50,085,46,07,37,246,45*7B
$GPGSV,3,2,09,27,35,171,37,31,18,058,42,26,17,291,00,29,17,282,*7C
$GPGSV,3,3,09,19,16,054,00*4E
$GPRMC,032920.379,A,4231.8299,N,08807.3034,W,0.18,145.08,070804,,*11
$GPVTG,145.08,T,,M,0.18,N,0.3,K*62
$GPMSS,0,0,0.000000,0,*58
$GPZDA,032921,07,08,2004,00,00*4A
$GPGGA,032921.379,4231.8301,N,08807.3033,W,1,05,1.6,208.5,M,-34.2,M,0.0,0000*49
$GPGSA,A,3,28,08,11,27,07,,,,,,,,4.9,1.6,4.6*3A
$GPRMC,032921.379,A,4231.8301,N,08807.3033,W,0.18,141.56,070804,,*18
$GPVTG,141.56,T,,M,0.18,N,0.3,K*6D
$GPZDA,032922,07,08,2004,00,00*49
$GPGGA,032922.378,4231.8303,N,08807.3033,W,1,05,1.6,208.4,M,-34.2,M,0.0,0000*48
$GPGSA,A,3,28,08,11,27,07,,,,,,,,4.9,1.6,4.6*3A
$GPRMC,032922.378,A,4231.8303,N,08807.3033,W,0.16,140.76,070804,,*15
$GPVTG,140.76,T,,M,0.16,N,0.3,K*60
$GPZDA,032923,07,08,2004,00,00*48
$GPGGA,032923.378,4231.8305,N,08807.3034,W,1,05,1.6,208.4,M,-34.2,M,0.0,0000*48
$GPGSA,A,3,28,08,11,27,07,,,,,,,,4.9,1.6,4.6*3A
$GPRMC,032923.378,A,4231.8305,N,08807.3034,W,0.19,143.92,070804,,*13
$GPVTG,143.92,T,,M,0.19,N,0.3,K*66
$GPZDA,032924,07,08,2004,00,00*4F
$GPGGA,032924.378,4231.8307,N,08807.3035,W,1,05,1.6,208.3,M,-34.2,M,0.0,0000*4B
$GPGSA,A,3,28,08,11,27,07,,,,,,,,4.9,1.6,4.6*3A
$GPRMC,032924.378,A,4231.8307,N,08807.3035,W,0.18,140.85,070804,,*13
$GPVTG,140.85,T,,M,0.18,N,0.3,K*62
$GPZDA,032925,07,08,2004,00,00*4E
$GPGGA,032925.378,4231.8308,N,08807.3036,W,1,05,1.6,208.2,M,-34.2,M,0.0,0000*47
$GPGSA,A,3,28,08,11,27,07,,,,,,,,4.9,1.6,4.6*3A
$GPGSV,3,1,09,28,64,317,40,08,60,188,42,11,50,085,47,07,37,246,45*7B
$GPGSV,3,2,09,27,35,171,38,31,18,058,41,26,17,291,00,29,17,282,*70
$GPGSV,3,3,09,19,16,054,00*4E
$GPRMC,032925.378,A,4231.8308,N,08807.3036,W,0.19,145.27,070804,,*12
$GPVTG,145.27,T,,M,0.19,N,0.3,K*6E
$GPMSS,0,0,0.000000,0,*58
$GPZDA,032926,07,08,2004,00,00*4D
$GPGGA,032926.378,4231.8309,N,08807.3038,W,1,05,1.6,208.0,M,-34.2,M,0.0,0000*49
$GPGSA,A,3,28,08,11,27,07,,,,,,,,4.9,1.6,4.6*3A
$GPRMC,032926.378,A,4231.8309,N,08807.3038,W,0.18,145.61,070804,,*1D
$GPVTG,145.61,T,,M,0.18,N,0.3,K*6D
$GPZDA,032927,07,08,2004,00,00*4C
$GPGGA,032927.378,4231.8310,N,08807.3040,W,1,05,1.6,207.9,M,-34.2,M,0.0,0000*49
$GPGSA,A,3,28,08,11,27,07,,,,,,,,4.9,1.6,4.6*3A
$GPRMC,032927.378,A,4231.8310,N,08807.3040,W,0.18,145.14,070804,,*19
$GPVTG,145.14,T,,M,0.18,N,0.3,K*6F
$GPZDA,032928,07,08,2004,00,00*43
$GPGGA,032928.378,4231.8311,N,08807.3042,W,1,05,1.6,207.8,M,-34.2,M,0.0,0000*44
$GPGSA,A,3,28,08,11,27,07,,,,,,,,4.9,1.6,4.6*3A
$GPRMC,032928.378,A,4231.8311,N,08807.3042,W,0.19,143.49,070804,,*1A
$GPVTG,143.49,T,,M,0.19,N,0.3,K*60
$GPZDA,032929,07,08,2004,00,00*42
$GPGGA,032929.378,4231.8311,N,08807.3043,W,1,05,1.6,207.7,M,-34.2,M,0.0,0000*4B
$GPGSA,A,3,28,08,11,27,07,,,,,,,,4.9,1.6,4.6*3A
$GPRMC,032929.378,A,4231.8311,N,08807.3043,W,0.19,145.09,070804,,*18
$GPVTG,145.09,T,,M,0.19,N,0.4,K*65
$GPZDA,032930,07,08,2004,00,00*4A
$GPGGA,032930.378,4231.8311,N,08807.3044,W,1,05,1.6,207.8,M,-34.2,M,0.0,0000*4B
$GPGSA,A,3,28,08,11,27,07,,,,,,,,4.9,1.6,4.6*3A
$GPGSV,3,1,09,28,64,317,40,08,60,188,42,11,50,085,47,07,37,246,46*78
$GPGSV,3,2,09,27,35,171,38,31,18,058,42,26,17,291,00,29,17,282,*73
$GPGSV,3,3,09,19,16,054,00*4E
$GPRMC,032930.378,A,4231.8311,N,08807.3044,W,0.18,143.00,070804,,*19
$GPVTG,143.00,T,,M,0.18,N,0.3,K*6C
$GPMSS,0,0,0.000000,0,*58
$GPZDA,032931,07,08,2004,00,00*4B
$GPGGA,032931.378,4231.8311,N,08807.3044,W,1,05,1.6,207.9,M,-34.2,M,0.0,0000*4B
$GPGSA,A,3,28,08,11,27,07,,,,,,,,4.9,1.6,4.6*3A
$GPRMC,032931.378,A,4231.8311,N,08807.3044,W,0.18,144.10,070804,,*1E
$GPVTG,144.10,T,,M,0.18,N,0.3,K*6A
$GPZDA,032932,07,08,2004,00,00*48
$GPGGA,032932.378,4231.8312,N,08807.3044,W,1,05,1.6,208.2,M,-34.2,M,0.0,0000*4F
$GPGSA,A,3,28,08,11,27,07,,,,,,,,4.9,1.6,4.6*3A
$GPRMC,032932.378,A,4231.8312,N,08807.3044,W,0.20,142.36,070804,,*17
$GPVTG,142.36,T,,M,0.20,N,0.4,K*64
$GPZDA,032933,07,08,2004,00,00*49
$GPGGA,032933.378,4231.8313,N,08807.3044,W,1,05,1.6,208.6,M,-34.2,M,0.0,0000*4B
$GPGSA,A,3,28,08,11,27,07,,,,,,,,4.9,1.6,4.6*3A
$GPRMC,032933.378,A,4231.8313,N,08807.3044,W,0.18,139.90,070804,,*1C
$GPVTG,139.90,T,,M,0.18,N,0.3,K*68
$GPZDA,032934,07,08,2004,00,00*4E
$GPGGA,032934.378,4231.8313,N,08807.3043,W,1,05,1.6,209.2,M,-34.2,M,0.0,0000*4E
$GPGSA,A,3,28,08,11,27,07,,,,,,,,4.9,1.6,4.6*3A
$GPRMC,032934.378,A,4231.8313,N,08807.3043,W,0.20,145.61,070804,,*12
$GPVTG,145.61,T,,M,0.20,N,0.4,K*61
$GPZDA,032935,07,08,2004,00,00*4F
$GPGGA,032935.378,4231.8314,N,08807.3043,W,1,05,1.6,209.8,M,-34.2,M,0.0,0000*42
$GPGSA,A,3,28,08,11,27,07,,,,,,,,4.9,1.6,4.6*3A
$GPGSV,3,1,09,28,64,317,40,08,60,188,41,11,50,085,46,07,37,246,46*7A
$GPGSV,3,2,09,27,35,171,39,31,18,058,43,26,17,291,00,29,17,282,*73
$GPGSV,3,3,09,19,16,054,00*4E
$GPRMC,032935.378,A,4231.8314,N,08807.3043,W,0.19,143.77,070804,,*1F
$GPVTG,143.77,T,,M,0.19,N,0.4,K*6A
$GPMSS,0,0,0.000000,0,*58
$GPZDA,032936,07,08,2004,00,00*4C
$GPGGA,032936.378,4231.8314,N,08807.3043,W,1,06,1.6,210.6,M,-34.2,M,0.0,0000*44
$GPGSA,A,3,28,08,11,27,07,31,,,,,,,4.7,1.6,4.3*33
$GPRMC,032936.378,A,4231.8314,N,08807.3043,W,0.19,144.65,070804,,*18
$GPVTG,144.65,T,,M,0.19,N,0.4,K*6E
$GPZDA,032937,07,08,2004,00,00*4D
$GPGGA,032937.378,4231.8313,N,08807.3043,W,1,06,1.6,211.4,M,-34.2,M,0.0,0000*41
$GPGSA,A,3,28,08,11,27,07,31,,,,,,,4.7,1.6,4.3*33
$GPRMC,032937.378,A,4231.8313,N,08807.3043,W,0.19,144.57,070804,,*1F
$GPVTG,144.57,T,,M,0.19,N,0.4,K*6F
$GPZDA,032938,07,08,2004,00,00*42
$GPGGA,032938.378,4231.8313,N,08807.3043,W,1,06,1.6,212.2,M,-34.2,M,0.0,0000*4B
$GPGSA,A,3,28,08,11,27,07,31,,,,,,,4.7,1.6,4.3*33
$GPRMC,032938.378,A,4231.8313,N,08807.3043,W,0.19,144.35,070804,,*14
$GPVTG,144.35,T,,M,0.19,N,0.3,K*6C
$GPZDA,032939,07,08,2004,00,00*43
$GPGGA,032939.377,4231.8312,N,08807.3043,W,1,06,1.6,212.9,M,-34.2,M,0.0,0000*4F
$GPGSA,A,3,28,08,11,27,07,31,,,,,,,4.7,1.6,4.3*33
$GPRMC,032939.377,A,4231.8312,N,08807.3043,W,0.21,141.22,070804,,*13
$GPVTG,141.22,T,,M,0.21,N,0.4,K*63
$GPZDA,032940,07,08,2004,00,00*4D
$GPGGA,032940.377,4231.8312,N,08807.3042,W,1,06,1.6,213.5,M,-34.2,M,0.0,0000*4D
$GPGSA,A,3,28,08,11,27,07,31,,,,,,,4.7,1.6,4.3*33
$GPGSV,3,1,09,28,64,317,41,08,60,188,41,31,56,251,42,11,50,085,46*7B
$GPGSV,3,2,09,07,38,246,46,27,35,171,39,26,17,291,00,29,17,282,*7C
$GPGSV,3,3,09,19,16,054,00*4E
$GPRMC,032940.377,A,4231.8312,N,08807.3042,W,0.20,146.15,070804,,*1E
$GPVTG,146.15,T,,M,0.20,N,0.4,K*61
$GPMSS,0,0,0.000000,0,*58
$GPZDA,032941,07,08,2004,00,00*4C
$GPGGA,032941.377,4231.8312,N,08807.3041,W,1,06,1.6,213.9,M,-34.2,M,0.0,0000*43
$GPGSA,A,3,28,08,11,27,07,31,,,,,,,4.7,1.6,4.3*33
$GPRMC,032941.377,A,4231.8312,N,08807.3041,W,0.19,142.42,070804,,*10
$GPVTG,142.42,T,,M,0.19,N,0.3,K*6A
$GPZDA,032942,07,08,2004,00,00*4F
$GPGGA,032942.377,4231.8312,N,08807.3040,W,1,06,1.6,214.1,M,-34.2,M,0.0,0000*4E
$GPGSA,A,3,28,08,11,27,07,31,,,,,,,4.7,1.6,4.3*33
$GPRMC,032942.377,A,4231.8312,N,08807.3040,W,0.18,141.13,070804,,*14
$GPVTG,141.13,T,,M,0.18,N,0.3,K*6C
$GPZDA,032943,07,08,2004,00,00*4E
$GPGGA,032943.377,4231.8312,N,08807.3038,W,1,06,1.6,214.1,M,-34.2,M,0.0,0000*40
$GPGSA,A,3,28,08,11,27,07,31,,,,,,,4.7,1.6,4.3*33
$GPRMC,032943.377,A,4231.8312,N,08807.3038,W,0.21,144.00,070804,,*17
$GPVTG,144.00,T,,M,0.21,N,0.4,K*66
$GPZDA,032944,07,08,2004,00,00*49
$GPGGA,032944.377,4231.8312,N,08807.3037,W,1,06,1.6,213.8,M,-34.2,M,0.0,0000*46
$GPGSA,A,3,28,08,11,27,07,31,,,,,,,4.7,1.6,4.3*33
$GPRMC,032944.377,A,4231.8312,N,08807.3037,W,0.18,142.18,070804,,*1A
$GPVTG,142.18,T,,M,0.18,N,0.3,K*64
$GPZDA,032945,07,08,2004,00,00*48
$GPGGA,032945.377,4231.8312,N,08807.3035,W,1,06,1.6,213.4,M,-34.2,M,0.0,0000*49
$GPGSA,A,3,28,08,11,27,07,31,,,,,,,4.7,1.6,4.3*33
$GPGSV,3,1,09,28,64,317,41,08,60,188,42,31,56,251,43,11,50,085,46*79
$GPGSV,3,2,09,07,38,246,46,27,35,171,38,26,17,291,00,29,17,282,*7D
$GPGSV,3,3,09,19,16,054,00*4E
$GPRMC,032945.377,A,4231.8312,N,08807.3035,W,0.21,145.29,070804,,*16
$GPVTG,145.29,T,,M,0.21,N,0.4,K*6C
$GPMSS,0,0,0.000000,0,*58
$GPZDA,032946,07,08,2004,00,00*4B
$GPGGA,032946.377,4231.8312,N,08807.3034,W,1,06,1.6,213.0,M,-34.2,M,0.0,0000*4F
$GPGSA,A,3,28,08,11,27,07,31,,,,,,,4.7,1.6,4.3*33
$GPRMC,032946.377,A,4231.8312,N,08807.3034,W,0.20,144.63,070804,,*1A
$GPVTG,144.63,T,,M,0.20,N,0.4,K*62
$GPZDA,032947,07,08,2004,00,00*4A
$GPGGA,032947.377,4231.8312,N,08807.3033,W,1,06,1.6,212.6,M,-34.2,M,0.0,0000*4E
$GPGSA,A,3,28,08,11,27,07,31,,,,,,,4.7,1.6,4.3*33
$GPRMC,032947.377,A,4231.8312,N,08807.3033,W,0.19,143.47,070804,,*17
$GPVTG,143.47,T,,M,0.19,N,0.4,K*69
$GPZDA,032948,07,08,2004,00,00*45
$GPGGA,032948.377,4231.8312,N,08807.3032,W,1,06,1.6,212.4,M,-34.2,M,0.0,0000*42
$GPGSA,A,3,28,08,11,27,07,31,,,,,,,4.7,1.6,4.3*33
$GPRMC,032948.377,A,4231.8312,N,08807.3032,W,0.19,142.35,070804,,*1D
$GPVTG,142.35,T,,M,0.19,N,0.4,K*6D
$GPZDA,032949,07,08,2004,00,00*44
$GPGGA,032949.377,4231.8312,N,08807.3031,W,1,06,1.6,212.2,M,-34.2,M,0.0,0000*46
$GPGSA,A,3,28,08,11,27,07,31,,,,,,,4.7,1.6,4.3*33
$GPRMC,032949.377,A,4231.8312,N,08807.3031,W,0.19,143.19,070804,,*10
$GPVTG,143.19,T,,M,0.19,N,0.3,K*65
$GPZDA,032950,07,08,2004,00,00*4C
$GPGGA,032950.377,4231.8311,N,08807.3031,W,1,06,1.6,212.1,M,-34.2,M,0.0,0000*4E
$GPGSA,A,3,28,08,11,27,07,31,,,,,,,4.7,1.6,4.3*33
$GPGSV,3,1,09,28,64,317,40,08,60,188,41,31,56,251,44,11,50,085,46*7C
$GPGSV,3,2,09,07,38,246,46,27,35,171,38,26,17,291,00,29,17,282,*7D
$GPGSV,3,3,09,19,16,054,00*4E
$GPRMC,032950.377,A,4231.8311,N,08807.3031,W,0.20,143.64,070804,,*1B
$GPVTG,143.64,T,,M,0.20,N,0.4,K*62
$GPMSS,0,0,0.000000,0,*58
$GPZDA,032951,07,08,2004,00,00*4D
$GPGGA,032951.377,4231.8311,N,08807.3030,W,1,06,1.6,212.1,M,-34.2,M,0.0,0000*4E
$GPGSA,A,3,28,08,11,27,07,31,,,,,,,4.7,1.6,4.3*33
$GPRMC,032951.377,A,4231.8311,N,08807.3030,W,0.19,140.80,070804,,*18
$GPVTG,140.80,T,,M,0.19,N,0.4,K*61
$GPZDA,032952,07,08,2004,00,00*4E
$GPGGA,032952.377,4231.8310,N,08807.3029,W,1,06,1.6,212.1,M,-34.2,M,0.0,0000*44
$GPGSA,A,3,28,08,11,27,07,31,,,,,,,4.7,1.6,4.3*33
$GPRMC,032952.377,A,4231.8310,N,08807.3029,W,0.19,141.91,070804,,*13
$GPVTG,141.91,T,,M,0.19,N,0.4,K*60
$GPZDA,032953,07,08,2004,00,00*4F
$GPGGA,032953.377,4231.8309,N,08807.3029,W,1,06,1.6,212.2,M,-34.2,M,0.0,0000*4E
$GPGSA,A,3,28,08,11,27,07,31,,,,,,,4.7,1.6,4.3*33
$GPRMC,032953.377,A,4231.8309,N,08807.3029,W,0.19,142.31,070804,,*13
$GPVTG,142.31,T,,M,0.19,N,0.3,K*6E
$GPZDA,032954,07,08,2004,00,00*48
$GPGGA,032954.377,4231.8309,N,08807.3030,W,1,06,1.6,212.4,M,-34.2,M,0.0,0000*47
$GPGSA,A,3,28,08,11,27,07,31,,,,,,,4.7,1.6,4.3*33
$GPRMC,032954.377,A,4231.8309,N,08807.3030,W,0.20,140.73,070804,,*12
$GPVTG,140.73,T,,M,0.20,N,0.4,K*67
$GPZDA,032955,07,08,2004,00,00*49
$GPGGA,032955.376,4231.8309,N,08807.3030,W,1,06,1.6,212.6,M,-34.2,M,0.0,0000*45
$GPGSA,A,3,28,08,11,27,07,31,,,,,,,4.7,1.6,4.3*33
$GPGSV,3,1,09,28,64,317,40,08,60,188,41,31,56,251,43,11,50,085,46*7B
$GPGSV,3,2,09,07,38,246,45,27,35,171,39,26,17,291,00,29,17,282,*7F
$GPGSV,3,3,09,19,16,054,00*4E
$GPRMC,032955.376,A,4231.8309,N,08807.3030,W,0.19,141.19,070804,,*15
$GPVTG,141.19,T,,M,0.19,N,0.4,K*60
$GPMSS,0,0,0.000000,0,*58
$GPZDA,032956,07,08,2004,00,00*4A
$GPGGA,032956.376,4231.8308,N,08807.3031,W,1,06,1.6,212.9,M,-34.2,M,0.0,0000*49
$GPGSA,A,3,28,08,11,27,07,31,,,,,,,4.7,1.6,4.3*33
$GPRMC,032956.376,A,4231.8308,N,08807.3031,W,0.19,142.60,070804,,*1B
$GPVTG,142.60,T,,M,0.19,N,0.3,K*6A
$GPZDA,032957,07,08,2004,00,00*4B
$GPGGA,032957.376,4231.8308,N,08807.3033,W,1,06,1.6,213.4,M,-34.2,M,0.0,0000*46
$GPGSA,A,3,28,08,11,27,07,31,,,,,,,4.7,1.6,4.3*33
$GPRMC,032957.376,A,4231.8308,N,08807.3033,W,0.19,142.81,070804,,*17
$GPVTG,142.81,T,,M,0.19,N,0.4,K*62
$GPZDA,032958,07,08,2004,00,00*44
$GPGGA,032958.376,4231.8308,N,08807.3035,W,1,06,1.6,213.8,M,-34.2,M,0.0,0000*43
$GPGSA,A,3,28,08,11,27,07,31,,,,,,,4.7,1.6,4.3*33
$GPRMC,032958.376,A,4231.8308,N,08807.3035,W,0.19,140.44,070804,,*15
$GPVTG,140.44,T,,M,0.19,N,0.4,K*69
$GPZDA,032959,07,08,2004,00,00*45
$GPGGA,032959.376,4231.8309,N,08807.3037,W,1,06,1.6,214.2,M,-34.2,M,0.0,0000*4C
$GPGSA,A,3,28,08,11,27,07,31,,,,,,,4.7,1.6,4.3*33
$GPRMC,032959.376,A,4231.8309,N,08807.3037,W,0.21,142.37,070804,,*1A
$GPVTG,142.37,T,,M,0.21,N,0.4,K*64
$GPZDA,033000,07,08,2004,00,00*41
$GPGGA,033000.376,4231.8309,N,08807.3038,W,1,06,1.6,214.7,M,-34.2,M,0.0,0000*42
$GPGSA,A,3,28,08,11,27,07,31,,,,,,,4.7,1.6,4.3*33
$GPGSV,3,1,09,28,64,317,40,08,60,188,41,31,56,251,43,11,50,085,46*7B
$GPGSV,3,2,09,07,38,246,44,27,35,171,40,26,17,291,00,29,17,282,*70
$GPGSV,3,3,09,19,16,054,00*4E
$GPRMC,033000.376,A,4231.8309,N,08807.3038,W,0.20,139.39,070804,,*12
$GPVTG,139.39,T,,M,0.20,N,0.4,K*67
$GPMSS,0,0,0.000000,0,*58
$GPZDA,033001,07,08,2004,00,00*40
$GPGGA,033001.376,4231.8310,N,08807.3040,W,1,06,1.6,215.0,M,-34.2,M,0.0,0000*42
$GPGSA,A,3,28,08,11,27,07,31,,,,,,,4.7,1.6,4.3*33
$GPRMC,033001.376,A,4231.8310,N,08807.3040,W,0.20,139.87,070804,,*11
$GPVTG,139.87,T,,M,0.20,N,0.4,K*62
$GPZDA,033002,07,08,2004,00,00*43
$GPGGA,033002.376,4231.8310,N,08807.3040,W,1,06,1.6,215.2,M,-34.2,M,0.0,0000*43
$GPGSA,A,3,28,08,11,27,07,31,,,,,,,4.7,1.6,4.3*33
$GPRMC,033002.376,A,4231.8310,N,08807.3040,W,0.20,141.37,070804,,*16
$GPVTG,141.37,T,,M,0.20,N,0.4,K*66
$GPZDA,033003,07,08,2004,00,00*42
$GPGGA,033003.376,4231.8310,N,08807.3040,W,1,06,1.6,215.2,M,-34.2,M,0.0,0000*42
$GPGSA,A,3,28,08,11,27,07,31,,,,,,,4.7,1.6,4.3*33
$GPRMC,033003.376,A,4231.8310,N,08807.3040,W,0.20,139.16,070804,,*1B
$GPVTG,139.16,T,,M,0.20,N,0.4,K*6A
$GPZDA,033004,07,08,2004,00,00*45
$GPGGA,033004.376,4231.8310,N,08807.3040,W,1,06,1.6,215.2,M,-34.2,M,0.0,0000*45
$GPGSA,A,3,28,08,11,27,07,31,,,,,,,4.7,1.6,4.3*33
$GPRMC,033004.376,A,4231.8310,N,08807.3040,W,0.19,142.39,070804,,*17
$GPVTG,142.39,T,,M,0.19,N,0.4,K*61
$GPZDA,033005,07,08,2004,00,00*44
$GPGGA,033005.376,4231.8309,N,08807.3038,W,1,06,1.6,215.2,M,-34.2,M,0.0,0000*43
$GPGSA,A,3,28,08,11,27,07,31,,,,,,,4.7,1.6,4.3*33
$GPGSV,3,1,09,28,64,317,41,08,60,188,40,31,56,251,44,11,50,085,45*7F
$GPGSV,3,2,09,07,38,246,44,27,35,171,39,26,17,291,00,29,17,282,*7E
$GPGSV,3,3,09,19,16,054,00*4E
$GPRMC,033005.376,A,4231.8309,N,08807.3038,W,0.21,140.45,070804,,*13
$GPVTG,140.45,T,,M,0.21,N,0.4,K*63
$GPMSS,0,0,0.000000,0,*58
$GPZDA,033006,07,08,2004,00,00*47
$GPGGA,033006.376,4231.8309,N,08807.3036,W,1,06,1.6,215.1,M,-34.2,M,0.0,0000*4D
$GPGSA,A,3,28,08,11,27,07,31,,,,,,,4.7,1.6,4.3*33
$GPRMC,033006.376,A,4231.8309,N,08807.3036,W,0.19,141.09,070804,,*1C
$GPVTG,141.09,T,,M,0.19,N,0.3,K*66
$GPZDA,033007,07,08,2004,00,00*46
$GPGGA,033007.376,4231.8309,N,08807.3034,W,1,06,1.6,214.8,M,-34.2,M,0.0,0000*46
$GPGSA,A,3,28,08,11,27,07,31,,,,,,,4.7,1.6,4.3*33
$GPRMC,033007.376,A,4231.8309,N,08807.3034,W,0.21,140.73,070804,,*18
$GPVTG,140.73,T,,M,0.21,N,0.4,K*66
$GPZDA,033008,07,08,2004,00,00*49
$GPGGA,033008.376,4231.8308,N,08807.3033,W,1,06,1.6,214.6,M,-34.2,M,0.0,0000*41
$GPGSA,A,3,28,08,11,27,07,31,,,,,,,4.7,1.6,4.3*33
$GPRMC,033008.376,A,4231.8308,N,08807.3033,W,0.20,137.97,070804,,*1A
$GPVTG,137.97,T,,M,0.20,N,0.4,K*6D
$GPZDA,033009,07,08,2004,00,00*48
$GPGGA,033009.376,4231.8308,N,08807.3031,W,1,06,1.6,214.3,M,-34.2,M,0.0,0000*47
$GPGSA,A,3,28,08,11,27,07,31,,,,,,,4.7,1.6,4.3*33
$GPRMC,033009.376,A,4231.8308,N,08807.3031,W,0.19,144.87,070804,,*16
$GPVTG,144.87,T,,M,0.19,N,0.4,K*62
$GPZDA,033010,07,08,2004,00,00*40
$GPGGA,033010.376,4231.8308,N,08807.3030,W,1,06,1.6,214.0,M,-34.2,M,0.0,0000*4D
$GPGSA,A,3,28,08,11,27,07,31,,,,,,,4.7,1.6,4.3*33
$GPGSV,3,1,09,28,64,317,41,08,60,188,41,31,56,251,43,11,50,085,45*79
$GPGSV,3,2,09,07,38,246,45,27,35,171,40,26,17,291,00,29,17,282,*71
$GPGSV,3,3,09,19,16,054,00*4E
$GPRMC,033010.376,A,4231.8308,N,08807.3030,W,0.19,137.61,070804,,*13
$GPVTG,137.61,T,,M,0.19,N,0.3,K*69
$GPMSS,0,0,0.000000,0,*58
$GPZDA,033011,07,08,2004,00,00*41
$GPGGA,033011.375,4231.8309,N,08807.3029,W,1,06,1.6,213.7,M,-34.2,M,0.0,0000*46
$GPGSA,A,3,28,08,11,27,07,31,,,,,,,4.7,1.6,4.4*34
$GPRMC,033011.375,A,4231.8309,N,08807.3029,W,0.21,145.34,070804,,*16
$GPVTG,145.34,T,,M,0.21,N,0.4,K*60
$GPZDA,033012,07,08,2004,00,00*42
$GPGGA,033012.375,4231.8309,N,08807.3028,W,1,06,1.6,213.4,M,-34.2,M,0.0,0000*47
$GPGSA,A,3,28,08,11,27,07,31,,,,,,,4.7,1.6,4.4*34
$GPRMC,033012.375,A,4231.8309,N,08807.3028,W,0.18,136.35,070804,,*1B
$GPVTG,136.35,T,,M,0.18,N,0.3,K*68
$GPZDA,033013,07,08,2004,00,00*43
$GPGGA,033013.375,4231.8310,N,08807.3027,W,1,06,1.6,213.2,M,-34.2,M,0.0,0000*47
$GPGSA,A,3,28,08,11,27,07,31,,,,,,,4.7,1.6,4.4*34
$GPRMC,033013.375,A,4231.8310,N,08807.3027,W,0.18,138.58,070804,,*18
$GPVTG,138.58,T,,M,0.18,N,0.3,K*6D
$GPZDA,033014,07,08,2004,00,00*44
$GPGGA,033014.375,4231.8311,N,08807.3025,W,1,06,1.6,213.0,M,-34.2,M,0.0,0000*41
$GPGSA,A,3,28,08,11,27,07,31,,,,,,,4.7,1.6,4.4*34
$GPRMC,033014.375,A,4231.8311,N,08807.3025,W,0.19,140.11,070804,,*1F
$GPVTG,140.11,T,,M,0.19,N,0.4,K*69
$GPZDA,033015,07,08,2004,00,00*45
$GPGGA,033015.375,4231.8312,N,08807.3024,W,1,06,1.6,212.9,M,-34.2,M,0.0,0000*4A
$GPGSA,A,3,28,08,11,27,07,31,,,,,,,4.7,1.6,4.4*34
$GPGSV,3,1,09,28,64,317,41,08,60,188,41,31,56,251,43,11,50,085,45*79
$GPGSV,3,2,09,07,38,246,45,27,35,171,40,26,17,291,00,29,17,282,*71
$GPGSV,3,3,09,19,16,054,00*4E
$GPRMC,033015.375,A,4231.8312,N,08807.3024,W,0.18,140.31,070804,,*1F
$GPVTG,140.31,T,,M,0.18,N,0.3,K*6D
$GPMSS,0,0,0.000000,0,*58
$GPZDA,033016,07,08,2004,00,00*46
$GPGGA,033016.375,4231.8314,N,08807.3024,W,1,06,1.6,212.9,M,-34.2,M,0.0,0000*4F
$GPGSA,A,3,28,08,11,27,07,31,,,,,,,4.7,1.6,4.4*34
$GPRMC,033016.375,A,4231.8314,N,08807.3024,W,0.18,138.90,070804,,*1E
$GPVTG,138.90,T,,M,0.18,N,0.3,K*69
$GPZDA,033017,07,08,2004,00,00*47
$GPGGA,033017.375,4231.8314,N,08807.3024,W,1,06,1.6,213.0,M,-34.2,M,0.0,0000*46
$GPGSA,A,3,28,08,11,27,07,31,,,,,,,4.7,1.6,4.4*34
$GPRMC,033017.375,A,4231.8314,N,08807.3024,W,0.19,142.90,070804,,*13
$GPVTG,142.90,T,,M,0.19,N,0.4,K*62
$GPZDA,033018,07,08,2004,00,00*48
$GPGGA,033018.375,4231.8315,N,08807.3025,W,1,06,1.6,213.1,M,-34.2,M,0.0,0000*48
$GPGSA,A,3,28,08,11,27,07,31,,,,,,,4.7,1.6,4.4*34
$GPRMC,033018.375,A,4231.8315,N,08807.3025,W,0.19,143.66,070804,,*14
$GPVTG,143.66,T,,M,0.19,N,0.3,K*6D
$GPZDA,033019,07,08,2004,00,00*49
$GPGGA,033019.375,4231.8315,N,08807.3026,W,1,06,1.6,213.3,M,-34.2,M,0.0,0000*48
$GPGSA,A,3,28,08,11,27,07,31,,,,,,,4.7,1.6,4.4*34
$GPRMC,033019.375,A,4231.8315,N,08807.3026,W,0.19,140.87,070804,,*1A
$GPVTG,140.87,T,,M,0.19,N,0.3,K*61
$GPZDA,033020,07,08,2004,00,00*43
$GPGGA,033020.375,4231.8314,N,08807.3027,W,1,06,1.6,213.3,M,-34.2,M,0.0,0000*42
$GPGSA,A,3,28,08,11,27,07,31,,,,,,,4.7,1.6,4.4*34
$GPGSV,3,1,09,28,64,317,41,08,60,188,41,31,56,251,43,11,50,084,46*7B
$GPGSV,3,2,09,07,38,247,46,27,35,171,40,26,17,291,00,29,16,281,*71
$GPGSV,3,3,09,19,16,054,00*4E
$GPRMC,033020.375,A,4231.8314,N,08807.3027,W,0.20,146.14,070804,,*16
$GPVTG,146.14,T,,M,0.20,N,0.4,K*60
$GPMSS,0,0,0.000000,0,*58
$GPZDA,033021,07,08,2004,00,00*42
$GPGGA,033021.375,4231.8314,N,08807.3029,W,1,06,1.6,213.3,M,-34.2,M,0.0,0000*4D
$GPGSA,A,3,28,08,11,27,07,31,,,,,,,4.7,1.6,4.4*34
$GPRMC,033021.375,A,4231.8314,N,08807.3029,W,0.19,141.57,070804,,*13
$GPVTG,141.57,T,,M,0.19,N,0.4,K*6A
$GPZDA,033022,07,08,2004,00,00*41
$GPGGA,033022.375,4231.8313,N,08807.3030,W,1,06,1.6,213.2,M,-34.2,M,0.0,0000*40
$GPGSA,A,3,28,08,11,27,07,31,,,,,,,4.7,1.6,4.4*34
$GPRMC,033022.375,A,4231.8313,N,08807.3030,W,0.19,143.95,070804,,*13
$GPVTG,143.95,T,,M,0.19,N,0.4,K*66
$GPZDA,033023,07,08,2004,00,00*40
$GPGGA,033023.375,4231.8313,N,08807.3031,W,1,06,1.6,213.2,M,-34.2,M,0.0,0000*40
$GPGSA,A,3,28,08,11,27,07,31,,,,,,,4.7,1.6,4.4*34
$GPRMC,033023.375,A,4231.8313,N,08807.3031,W,0.20,141.81,070804,,*1E
$GPVTG,141.81,T,,M,0.20,N,0.4,K*6B
$GPZDA,033024,07,08,2004,00,00*47
$GPGGA,033024.375,4231.8313,N,08807.3032,W,1,06,1.6,213.1,M,-34.2,M,0.0,0000*47
$GPGSA,A,3,28,08,11,27,07,31,,,,,,,4.7,1.6,4.4*34
$GPRMC,033024.375,A,4231.8313,N,08807.3032,W,0.18,142.07,070804,,*1C
$GPVTG,142.07,T,,M,0.18,N,0.3,K*6A
$GPZDA,033025,07,08,2004,00,00*46
$GPGGA,033025.375,4231.8313,N,08807.3033,W,1,06,1.6,213.0,M,-34.2,M,0.0,0000*46
$GPGSA,A,3,28,08,11,27,07,31,,,,,,,4.7,1.6,4.4*34
$GPGSV,3,1,09,28,64,317,41,08,60,188,41,31,56,251,42,11,50,084,46*7A
$GPGSV,3,2,09,07,38,247,45,27,35,171,40,26,17,291,00,29,16,281,*72
$GPGSV,3,3,09,19,16,054,00*4E
$GPRMC,033025.375,A,4231.8313,N,08807.3033,W,0.18,140.21,070804,,*1A
$GPVTG,140.21,T,,M,0.18,N,0.3,K*6C
$GPMSS,0,0,0.000000,0,*58
$GPZDA,033026,07,08,2004,00,00*45
$GPGGA,033026.375,4231.8314,N,08807.3034,W,1,06,1.6,213.0,M,-34.2,M,0.0,0000*45
$GPGSA,A,3,28,08,11,27,07,31,,,,,,,4.7,1.6,4.4*34
$GPRMC,033026.375,A,4231.8314,N,08807.3034,W,0.18,145.89,070804,,*1E
$GPVTG,145.89,T,,M,0.18,N,0.3,K*6B
$GPZDA,033027,07,08,2004,00,00*44
$GPGGA,033027.375,4231.8315,N,08807.3036,W,1,06,1.6,213.0,M,-34.2,M,0.0,0000*47
$GPGSA,A,3,28,08,11,27,07,31,,,,,,,4.7,1.6,4.4*34
$GPRMC,033027.375,A,4231.8315,N,08807.3036,W,0.19,139.51,070804,,*13
$GPVTG,139.51,T,,M,0.19,N,0.4,K*63
$GPZDA,033028,07,08,2004,00,00*4B
$GPGGA,033028.374,4231.8315,N,08807.3037,W,1,06,1.6,213.2,M,-34.2,M,0.0,0000*4A
$GPGSA,A,3,28,08,11,27,07,31,,,,,,,4.7,1.6,4.4*34
$GPRMC,033028.374,A,4231.8315,N,08807.3037,W,0.20,144.06,070804,,*1E
$GPVTG,144.06,T,,M,0.20,N,0.4,K*61
$GPZDA,033029,07,08,2004,00,00*4A
$GPGGA,033029.374,4231.8316,N,08807.3038,W,1,06,1.6,213.5,M,-34.2,M,0.0,0000*40
$GPGSA,A,3,28,08,11,27,07,31,,,,,,,4.7,1.6,4.4*34
$GPRMC,033029.374,A,4231.8316,N,08807.3038,W,0.19,143.09,070804,,*11
$GPVTG,143.09,T,,M,0.19,N,0.4,K*63
$GPZDA,033030,07,08,2004,00,00*42
$GPGGA,033030.374,4231.8316,N,08807.3039,W,1,06,1.6,213.9,M,-34.2,M,0.0,0000*45
$GPGSA,A,3,28,08,11,27,07,31,,,,,,,4.7,1.6,4.4*34
$GPGSV,3,1,09,28,64,317,41,08,60,188,40,31,56,251,43,11,50,084,46*7A
$GPGSV,3,2,09,07,38,247,45,27,35,171,41,26,17,291,00,29,16,281,*73
$GPGSV,3,3,09,19,16,054,00*4E
$GPRMC,033030.374,A,4231.8316,N,08807.3039,W,0.18,141.05,070804,,*17
$GPVTG,141.05,T,,M,0.18,N,0.3,K*6B
$GPMSS,0,0,0.000000,0,*58
$GPZDA,033031,07,08,2004,00,00*43
$GPGGA,033031.374,4231.8317,N,08807.3040,W,1,06,1.6,214.3,M,-34.2,M,0.0,0000*46
$GPGSA,A,3,28,08,11,27,07,31,,,,,,,4.7,1.6,4.4*34
$GPRMC,033031.374,A,4231.8317,N,08807.3040,W,0.19,143.82,070804,,*15
$GPVTG,143.82,T,,M,0.19,N,0.4,K*60
$GPZDA,033032,07,08,2004,00,00*40
$GPGGA,033032.374,4231.8316,N,08807.3041,W,1,06,1.6,214.8,M,-34.2,M,0.0,0000*4E
$GPGSA,A,3,28,08,11,27,07,31,,,,,,,4.7,1.6,4.4*34
$GPRMC,033032.374,A,4231.8316,N,08807.3041,W,0.20,143.53,070804,,*10
$GPVTG,143.53,T,,M,0.20,N,0.4,K*66
$GPZDA,033033,07,08,2004,00,00*41
$GPGGA,033033.374,4231.8316,N,08807.3043,W,1,06,1.6,215.1,M,-34.2,M,0.0,0000*45
$GPGSA,A,3,28,08,11,27,07,31,,,,,,,4.7,1.6,4.4*34
$GPRMC,033033.374,A,4231.8316,N,08807.3043,W,0.20,144.09,070804,,*1B
$GPVTG,144.09,T,,M,0.20,N,0.4,K*6E
$GPZDA,033034,07,08,2004,00,00*46
$GPGGA,033034.374,4231.8315,N,08807.3044,W,1,06,1.6,215.6,M,-34.2,M,0.0,0000*41
$GPGSA,A,3,28,08,11,27,07,31,,,,,,,4.7,1.6,4.4*34
$GPRMC,033034.374,A,4231.8315,N,08807.3044,W,0.20,142.95,070804,,*1B
$GPVTG,142.95,T,,M,0.20,N,0.4,K*6D
$GPZDA,033035,07,08,2004,00,00*47
$GPGGA,033035.374,4231.8313,N,08807.3045,W,1,06,1.6,216.1,M,-34.2,M,0.0,0000*43
$GPGSA,A,3,28,08,11,27,07,31,,,,,,,4.7,1.6,4.4*34
$GPGSV,3,1,09,28,64,317,41,08,60,188,41,31,56,251,43,11,50,084,47*7A
$GPGSV,3,2,09,07,38,247,45,27,35,171,41,26,17,291,00,29,16,281,*73
$GPGSV,3,3,09,19,16,054,00*4E
$GPRMC,033035.374,A,4231.8313,N,08807.3045,W,0.20,142.28,070804,,*1B
$GPVTG,142.28,T,,M,0.20,N,0.4,K*6B
$GPMSS,0,0,0.000000,0,*58
$GPZDA,033036,07,08,2004,00,00*44
$GPGGA,033036.374,4231.8312,N,08807.3046,W,1,06,1.6,216.7,M,-34.2,M,0.0,0000*44
$GPGSA,A,3,28,08,11,27,07,31,,,,,,,4.7,1.6,4.4*34
$GPRMC,033036.374,A,4231.8312,N,08807.3046,W,0.19,141.43,070804,,*1E
$GPVTG,141.43,T,,M,0.19,N,0.4,K*6F
$GPZDA,033037,07,08,2004,00,00*45
$GPGGA,033037.374,4231.8310,N,08807.3047,W,1,06,1.6,217.3,M,-34.2,M,0.0,0000*43
$GPGSA,A,3,28,08,11,27,07,31,,,,,,,4.7,1.6,4.4*34
$GPRMC,033037.374,A,4231.8310,N,08807.3047,W,0.19,142.06,070804,,*1E
$GPVTG,142.06,T,,M,0.19,N,0.4,K*6D
$GPZDA,033038,07,08,2004,00,00*4A
$GPGGA,033038.374,4231.8308,N,08807.3047,W,1,06,1.6,218.0,M,-34.2,M,0.0,0000*49
$GPGSA,A,3,28,08,11,27,07,31,,,,,,,4.7,1.6,4.4*34
$GPRMC,033038.374,A,4231.8308,N,08807.3047,W,0.20,141.46,070804,,*15
$GPVTG,141.46,T,,M,0.20,N,0.4,K*60
$GPZDA,033039,07,08,2004,00,00*4B
$GPGGA,033039.374,4231.8307,N,08807.3047,W,1,06,1.6,218.8,M,-34.2,M,0.0,0000*4F
$GPGSA,A,3,28,08,11,27,07,31,,,,,,,4.7,1.6,4.4*34
$GPRMC,033039.374,A,4231.8307,N,08807.3047,W,0.19,141.26,070804,,*17
$GPVTG,141.26,T,,M,0.19,N,0.4,K*6C
$GPZDA,033040,07,08,2004,00,00*45
$GPGGA,033040.374,4231.8306,N,08807.3047,W,1,06,1.6,219.7,M,-34.2,M,0.0,0000*4E
$GPGSA,A,3,28,08,11,27,07,31,,,,,,,4.7,1.6,4.4*34
$GPGSV,3,1,09,28,64,317,40,08,60,188,39,31,56,251,43,11,50,084,46*75
$GPGSV,3,2,09,07,38,247,45,27,35,171,41,26,17,291,00,29,16,281,*73
$GPGSV,3,3,09,19,16,054,00*4E
$GPRMC,033040.374,A,4231.8306,N,08807.3047,W,0.20,145.54,070804,,*13
$GPVTG,145.54,T,,M,0.20,N,0.4,K*67
$GPMSS,0,0,0.000000,0,*58
$GPZDA,033041,07,08,2004,00,00*44
$GPGGA,033041.374,4231.8306,N,08807.3047,W,1,06,1.6,220.6,M,-34.2,M,0.0,0000*44
$GPGSA,A,3,28,08,11,27,07,31,,,,,,,4.7,1.6,4.4*34
$GPRMC,033041.374,A,4231.8306,N,08807.3047,W,0.18,134.63,070804,,*1B
$GPVTG,134.63,T,,M,0.18,N,0.3,K*69
$GPZDA,033042,07,08,2004,00,00*47
$GPGGA,033042.374,4231.8306,N,08807.3048,W,1,06,1.6,221.7,M,-34.2,M,0.0,0000*48
$GPGSA,A,3,28,08,11,27,07,31,,,,,,,4.7,1.6,4.4*34
$GPRMC,033042.374,A,4231.8306,N,08807.3048,W,0.21,144.44,070804,,*1F
$GPVTG,144.44,T,,M,0.21,N,0.4,K*66
$GPZDA,033043,07,08,2004,00,00*46
$GPGGA,033043.374,4231.8306,N,08807.3048,W,1,06,1.6,222.7,M,-34.2,M,0.0,0000*4A
$GPGSA,A,3,28,08,11,27,07,31,,,,,,,4.7,1.6,4.4*34
$GPRMC,033043.374,A,4231.8306,N,08807.3048,W,0.22,146.97,070804,,*11
$GPVTG,146.97,T,,M,0.22,N,0.4,K*69
$GPZDA,033044,07,08,2004,00,00*41
$GPGGA,033044.373,4231.8306,N,08807.3049,W,1,06,1.6,223.8,M,-34.2,M,0.0,0000*45
$GPGSA,A,3,28,08,11,27,07,31,,,,,,,4.7,1.6,4.4*34
$GPRMC,033044.373,A,4231.8306,N,08807.3049,W,0.21,142.24,070804,,*1F
$GPVTG,142.24,T,,M,0.21,N,0.4,K*66
$GPZDA,033045,07,08,2004,00,00*40
$GPGGA,033045.373,4231.8307,N,08807.3050,W,1,06,1.6,224.8,M,-34.2,M,0.0,0000*4A
$GPGSA,A,3,28,08,11,27,07,31,,,,,,,4.7,1.6,4.4*34
$GPGSV,3,1,09,28,64,317,40,08,59,188,39,31,56,251,42,11,50,084,46*7E
$GPGSV,3,2,09,07,38,247,45,27,35,171,42,26,17,290,00,29,16,281,*71
$GPGSV,3,3,09,19,16,054,00*4E
$GPRMC,033045.373,A,4231.8307,N,08807.3050,W,0.20,142.73,070804,,*14
$GPVTG,142.73,T,,M,0.20,N,0.4,K*65
$GPMSS,0,0,0.000000,0,*58
$GPZDA,033046,07,08,2004,00,00*43
$GPGGA,033046.373,4231.8307,N,08807.3051,W,1,06,1.6,225.7,M,-34.2,M,0.0,0000*46
$GPGSA,A,3,28,08,11,27,07,31,,,,,,,4.7,1.6,4.4*34
$GPRMC,033046.373,A,4231.8307,N,08807.3051,W,0.19,141.52,070804,,*1C
$GPVTG,141.52,T,,M,0.19,N,0.3,K*68
$GPZDA,033047,07,08,2004,00,00*42
$GPGGA,033047.373,4231.8307,N,08807.3052,W,1,06,1.6,226.4,M,-34.2,M,0.0,0000*44
$GPGSA,A,3,28,08,11,27,07,31,,,,,,,4.7,1.6,4.4*34
$GPRMC,033047.373,A,4231.8307,N,08807.3052,W,0.20,141.43,070804,,*14
$GPVTG,141.43,T,,M,0.20,N,0.4,K*65
$GPZDA,033048,07,08,2004,00,00*4D
$GPGGA,033048.373,4231.8307,N,08807.3053,W,1,06,1.6,227.0,M,-34.2,M,0.0,0000*4F
$GPGSA,A,3,28,08,11,27,07,31,,,,,,,4.7,1.6,4.4*34
$GPRMC,033048.373,A,4231.8307,N,08807.3053,W,0.19,137.69,070804,,*19
$GPVTG,137.69,T,,M,0.19,N,0.4,K*66
$GPZDA,033049,07,08,2004,00,00*4C
$GPGGA,033049.373,4231.8307,N,08807.3055,W,1,06,1.6,227.5,M,-34.2,M,0.0,0000*4D
$GPGSA,A,3,28,08,11,27,07,31,,,,,,,4.7,1.6,4.4*34
$GPRMC,033049.373,A,4231.8307,N,08807.3055,W,0.19,144.58,070804,,*18
$GPVTG,144.58,T,,M,0.19,N,0.3,K*67
$GPZDA,033050,07,08,2004,00,00*44
$GPGGA,033050.373,4231.8307,N,08807.3056,W,1,06,1.6,227.9,M,-34.2,M,0.0,0000*4A
$GPGSA,A,3,28,08,11,27,07,31,,,,,,,4.7,1.6,4.4*34
$GPGSV,3,1,09,28,64,317,41,08,59,188,40,31,56,251,43,11,50,084,46*70
$GPGSV,3,2,09,07,38,247,44,27,35,171,42,26,17,290,00,29,16,281,*70
$GPGSV,3,3,09,19,16,054,00*4E
$GPRMC,033050.373,A,4231.8307,N,08807.3056,W,0.21,144.81,070804,,*1C
$GPVTG,144.81,T,,M,0.21,N,0.4,K*6F
$GPMSS,0,0,0.000000,0,*58
$GPZDA,033051,07,08,2004,00,00*45
$GPGGA,033051.373,4231.8306,N,08807.3057,W,1,06,1.6,228.2,M,-34.2,M,0.0,0000*4F
$GPGSA,A,3,28,08,11,27,07,31,,,,,,,4.7,1.6,4.4*34
$GPRMC,033051.373,A,4231.8306,N,08807.3057,W,0.20,143.14,070804,,*17
$GPVTG,143.14,T,,M,0.20,N,0.4,K*65
$GPZDA,033052,07,08,2004,00,00*46
$GPGGA,033052.373,4231.8306,N,08807.3058,W,1,06,1.6,228.3,M,-34.2,M,0.0,0000*42
$GPGSA,A,3,28,08,11,27,07,31,,,,,,,4.7,1.6,4.4*34
$GPRMC,033052.373,A,4231.8306,N,08807.3058,W,0.20,143.27,070804,,*1B
$GPVTG,143.27,T,,M,0.20,N,0.4,K*65
$GPZDA,033053,07,08,2004,00,00*47
$GPGGA,033053.373,4231.8305,N,08807.3059,W,1,06,1.6,228.4,M,-34.2,M,0.0,0000*46
$GPGSA,A,3,28,08,11,27,07,31,,,,,,,4.7,1.6,4.4*34
$GPRMC,033053.373,A,4231.8305,N,08807.3059,W,0.20,139.12,070804,,*13
$GPVTG,139.12,T,,M,0.20,N,0.4,K*6E
$GPZDA,033054,07,08,2004,00,00*40
$GPGGA,033054.373,4231.8305,N,08807.3060,W,1,06,1.6,228.3,M,-34.2,M,0.0,0000*4C
$GPGSA,A,3,28,08,11,27,07,31,,,,,,,4.7,1.6,4.4*34
$GPRMC,033054.373,A,4231.8305,N,08807.3060,W,0.19,140.07,070804,,*1E
$GPVTG,140.07,T,,M,0.19,N,0.4,K*6E
$GPZDA,033055,07,08,2004,00,00*41
$GPGGA,033055.373,4231.8305,N,08807.3060,W,1,06,1.6,228.1,M,-34.2,M,0.0,0000*4F
$GPGSA,A,3,28,08,11,27,07,31,,,,,,,4.7,1.6,4.4*34
$GPGSV,3,1,09,28,64,317,42,08,59,188,41,31,56,251,42,11,50,084,46*73
$GPGSV,3,2,09,07,38,247,44,27,35,171,42,26,17,290,00,29,16,281,*70
$GPGSV,3,3,09,19,16,054,00*4E
$GPRMC,033055.373,A,4231.8305,N,08807.3060,W,0.20,144.72,070804,,*13
$GPVTG,144.72,T,,M,0.20,N,0.4,K*62
$GPMSS,0,0,0.000000,0,*58
$GPZDA,033056,07,08,2004,00,00*42
$GPGGA,033056.373,4231.8306,N,08807.3060,W,1,06,1.6,227.8,M,-34.2,M,0.0,0000*49
$GPGSA,A,3,28,08,11,27,07,31,,,,,,,4.7,1.6,4.4*34
$GPRMC,033056.373,A,4231.8306,N,08807.3060,W,0.21,140.80,070804,,*1B
$GPVTG,140.80,T,,M,0.21,N,0.4,K*6A
$GPZDA,033057,07,08,2004,00,00*43
$GPGGA,033057.373,4231.8307,N,08807.3060,W,1,06,1.6,227.5,M,-34.2,M,0.0,0000*44
$GPGSA,A,3,28,08,11,27,07,31,,,,,,,4.7,1.6,4.4*34
$GPRMC,033057.373,A,4231.8307,N,08807.3060,W,0.19,143.26,070804,,*1F
$GPVTG,143.26,T,,M,0.19,N,0.4,K*6E
$GPZDA,033058,07,08,2004,00,00*4C
$GPGGA,033058.373,4231.8308,N,08807.3059,W,1,06,1.6,227.2,M,-34.2,M,0.0,0000*49
$GPGSA,A,3,28,08,11,27,07,31,,,,,,,4.7,1.6,4.4*34
$GPRMC,033058.373,A,4231.8308,N,08807.3059,W,0.20,138.81,070804,,*1E
$GPVTG,138.81,T,,M,0.20,N,0.4,K*65
$GPZDA,033059,07,08,2004,00,00*4D
$GPGGA,033059.373,4231.8308,N,08807.3058,W,1,06,1.6,226.8,M,-34.2,M,0.0,0000*42
$GPGSA,A,3,28,08,11,27,07,31,,,,,,,4.7,1.6,4.4*34
$GPRMC,033059.373,A,4231.8308,N,08807.3058,W,0.21,143.11,070804,,*1A
$GPVTG,143.11,T,,M,0.21,N,0.4,K*61
$GPZDA,033100,07,08,2004,00,00*40
$GPGGA,033100.372,4231.8309,N,08807.3057,W,1,06,1.6,226.4,M,-34.2,M,0.0,0000*4C
$GPGSA,A,3,28,08,11,27,07,31,,,,,,,4.7,1.6,4.4*34
$GPGSV,3,1,09,28,64,317,41,08,59,188,41,31,56,251,43,11,50,084,46*71
$GPGSV,3,2,09,07,38,247,45,27,35,171,42,26,17,290,00,29,16,281,*71
$GPGSV,3,3,09,19,16,054,00*4E
$GPRMC,033100.372,A,4231.8309,N,08807.3057,W,0.20,140.10,070804,,*1B
$GPVTG,140.10,T,,M,0.20,N,0.4,K*62
$GPMSS,0,0,0.000000,0,*58
$GPZDA,033101,07,08,2004,00,00*41
$GPGGA,033101.372,4231.8309,N,08807.3056,W,1,06,1.6,226.1,M,-34.2,M,0.0,0000*49
$GPGSA,A,3,28,08,11,27,07,31,,,,,,,4.7,1.6,4.4*34
$GPRMC,033101.372,A,4231.8309,N,08807.3056,W,0.20,143.55,070804,,*19
$GPVTG,143.55,T,,M,0.20,N,0.4,K*60
$GPZDA,033102,07,08,2004,00,00*42
$GPGGA,033102.372,4231.8309,N,08807.3055,W,1,06,1.6,225.9,M,-34.2,M,0.0,0000*42
$GPGSA,A,3,28,08,11,27,07,31,,,,,,,4.7,1.6,4.4*34
$GPRMC,033102.372,A,4231.8309,N,08807.3055,W,0.20,142.12,070804,,*1B
$GPVTG,142.12,T,,M,0.20,N,0.4,K*62
$GPZDA,033103,07,08,2004,00,00*43
$GPGGA,033103.372,4231.8309,N,08807.3054,W,1,06,1.6,225.7,M,-34.2,M,0.0,0000*4C
$GPGSA,A,3,28,08,11,27,07,31,,,,,,,4.7,1.6,4.4*34
$GPRMC,033103.372,A,4231.8309,N,08807.3054,W,0.19,141.64,070804,,*13
$GPVTG,141.64,T,,M,0.19,N,0.4,K*6A
$GPZDA,033104,07,08,2004,00,00*44
$GPGGA,033104.372,4231.8308,N,08807.3054,W,1,06,1.6,225.6,M,-34.2,M,0.0,0000*4B
$GPGSA,A,3,28,08,11,27,07,31,,,,,,,4.7,1.6,4.4*34
$GPRMC,033104.372,A,4231.8308,N,08807.3054,W,0.19,143.27,070804,,*10
$GPVTG,143.27,T,,M,0.19,N,0.4,K*6F
$GPZDA,033105,07,08,2004,00,00*45
$GPGGA,033105.372,4231.8307,N,08807.3055,W,1,06,1.6,225.6,M,-34.2,M,0.0,0000*44
$GPGSA,A,3,28,08,11,27,07,31,,,,,,,4.7,1.6,4.4*34
$GPGSV,3,1,09,28,64,317,42,08,59,188,40,31,56,251,43,11,50,084,47*72
$GPGSV,3,2,09,07,38,247,44,27,35,171,41,26,17,290,00,29,16,281,*73
$GPGSV,3,3,09,19,16,054,00*4E
$GPRMC,033105.372,A,4231.8307,N,08807.3055,W,0.21,143.91,070804,,*19
$GPVTG,143.91,T,,M,0.21,N,0.4,K*69
$GPMSS,0,0,0.000000,0,*58
$GPZDA,033106,07,08,2004,00,00*46
$GPGGA,033106.372,4231.8305,N,08807.3056,W,1,06,1.6,225.5,M,-34.2,M,0.0,0000*45
$GPGSA,A,3,28,08,11,27,07,31,,,,,,,4.7,1.6,4.4*34
$GPRMC,033106.372,A,4231.8305,N,08807.3056,W,0.20,145.97,070804,,*1A
$GPVTG,145.97,T,,M,0.20,N,0.4,K*68
$GPZDA,033107,07,08,2004,00,00*47
$GPGGA,033107.372,4231.8303,N,08807.3057,W,1,06,1.6,225.4,M,-34.2,M,0.0,0000*42
$GPGSA,A,3,28,08,11,27,07,31,,,,,,,4.7,1.6,4.4*34
$GPRMC,033107.372,A,4231.8303,N,08807.3057,W,0.18,144.00,070804,,*18
$GPVTG,144.00,T,,M,0.18,N,0.3,K*6B
$GPZDA,033108,07,08,2004,00,00*48
$GPGGA,033108.372,4231.8301,N,08807.3057,W,1,06,1.6,225.3,M,-34.2,M,0.0,0000*48
$GPGSA,A,3,28,08,11,27,07,31,,,,,,,4.7,1.6,4.4*34
$GPRMC,033108.372,A,4231.8301,N,08807.3057,W,0.21,146.25,070804,,*1A
$GPVTG,146.25,T,,M,0.21,N,0.4,K*63
$GPZDA,033109,07,08,2004,00,00*49
$GPGGA,033109.372,4231.8300,N,08807.3058,W,1,06,1.6,225.3,M,-34.2,M,0.0,0000*47
$GPGSA,A,3,28,08,11,27,07,31,,,,,,,4.7,1.6,4.4*34
$GPRMC,033109.372,A,4231.8300,N,08807.3058,W,0.19,138.98,070804,,*11
$GPVTG,138.98,T,,M,0.19,N,0.4,K*67
$GPZDA,033110,07,08,2004,00,00*41
$GPGGA,033110.372,4231.8299,N,08807.3058,W,1,06,1.6,225.1,M,-34.2,M,0.0,0000*4C
$GPGSA,A,3,28,08,11,27,07,31,,,,,,,4.7,1.6,4.4*34
$GPGSV,3,1,09,28,64,317,42,08,59,188,41,31,56,251,42,11,50,084,46*73
$GPGSV,3,2,09,07,38,247,44,27,35,171,42,26,17,290,00,29,16,281,*70
$GPGSV,3,3,09,19,16,054,00*4E
$GPRMC,033110.372,A,4231.8299,N,08807.3058,W,0.19,143.10,070804,,*14
$GPVTG,143.10,T,,M,0.19,N,0.4,K*6B
$GPMSS,0,0,0.000000,0,*58
$GPZDA,033111,07,08,2004,00,00*40
$GPGGA,033111.372,4231.8298,N,08807.3058,W,1,06,1.6,224.9,M,-34.2,M,0.0,0000*45
$GPGSA,A,3,28,08,11,27,07,31,,,,,,,4.7,1.6,4.4*34
$GPRMC,033111.372,A,4231.8298,N,08807.3058,W,0.20,140.43,070804,,*1B
$GPVTG,140.43,T,,M,0.20,N,0.4,K*64
$GPZDA,033112,07,08,2004,00,00*43
$GPGGA,033112.372,4231.8297,N,08807.3058,W,1,06,1.6,224.7,M,-34.2,M,0.0,0000*47
$GPGSA,A,3,28,08,11,27,07,31,,,,,,,4.7,1.6,4.4*34
$GPRMC,033112.372,A,4231.8297,N,08807.3058,W,0.19,141.44,070804,,*1B
$GPVTG,141.44,T,,M,0.19,N,0.4,K*68
$GPZDA,033113,07,08,2004,00,00*42
$GPGGA,033113.372,4231.8296,N,08807.3058,W,1,06,1.6,224.5,M,-34.2,M,0.0,0000*45
$GPGSA,A,3,28,08,11,27,07,31,,,,,,,4.7,1.6,4.4*34
$GPRMC,033113.372,A,4231.8296,N,08807.3058,W,0.19,142.98,070804,,*19
$GPVTG,142.98,T,,M,0.19,N,0.3,K*6D
$GPZDA,033114,07,08,2004,00,00*45
$GPGGA,033114.372,4231.8296,N,08807.3058,W,1,06,1.6,224.3,M,-34.2,M,0.0,0000*44
$GPGSA,A,3,28,08,11,27,07,31,,,,,,,4.7,1.6,4.4*34
$GPRMC,033114.372,A,4231.8296,N,08807.3058,W,0.19,145.03,070804,,*1B
$GPVTG,145.03,T,,M,0.19,N,0.4,K*6F
$GPZDA,033115,07,08,2004,00,00*44
$GPGGA,033115.372,4231.8295,N,08807.3058,W,1,06,1.6,224.3,M,-34.2,M,0.0,0000*46
$GPGSA,A,3,28,08,11,27,07,31,,,,,,,4.7,1.6,4.4*34
$GPGSV,3,1,09,28,64,318,41,08,59,188,40,31,57,252,41,11,50,084,46*7F
$GPGSV,3,2,09,07,38,247,44,27,34,171,42,26,17,290,00,29,16,281,*71
$GPGSV,3,3,09,19,15,054,00*4D
$GPRMC,033115.372,A,4231.8295,N,08807.3058,W,0.20,143.06,070804,,*10
$GPVTG,143.06,T,,M,0.20,N,0.4,K*66
$GPMSS,0,0,0.000000,0,*58
$GPZDA,033116,07,08,2004,00,00*47
$GPGGA,033116.372,4231.8294,N,08807.3059,W,1,06,1.6,224.3,M,-34.2,M,0.0,0000*45
$GPGSA,A,3,28,08,11,27,07,31,,,,,,,4.7,1.6,4.4*34
$GPRMC,033116.372,A,4231.8294,N,08807.3059,W,0.20,145.49,070804,,*1E
$GPVTG,145.49,T,,M,0.20,N,0.4,K*6B
$GPZDA,033117,07,08,2004,00,00*46
$GPGGA,033117.371,4231.8294,N,08807.3058,W,1,06,1.6,224.5,M,-34.2,M,0.0,0000*40
$GPGSA,A,3,28,08,11,27,07,31,,,,,,,4.7,1.6,4.4*34
$GPRMC,033117.371,A,4231.8294,N,08807.3058,W,0.20,141.30,070804,,*17
$GPVTG,141.30,T,,M,0.20,N,0.4,K*61
$GPZDA,033118,07,08,2004,00,00*49
$GPGGA,033118.371,4231.8293,N,08807.3058,W,1,06,1.6,224.7,M,-34.2,M,0.0,0000*4A
$GPGSA,A,3,28,08,11,27,07,31,,,,,,,4.7,1.6,4.4*34
$GPRMC,033118.371,A,4231.8293,N,08807.3058,W,0.19,141.19,070804,,*1E
$GPVTG,141.19,T,,M,0.19,N,0.4,K*60
$GPZDA,033119,07,08,2004,00,00*48
$GPGGA,033119.371,4231.8293,N,08807.3056,W,1,06,1.6,225.0,M,-34.2,M,0.0,0000*43
$GPGSA,A,3,28,08,11,27,07,31,,,,,,,4.7,1.6,4.4*34
$GPRMC,033119.371,A,4231.8293,N,08807.3056,W,0.20,143.01,070804,,*10
$GPVTG,143.01,T,,M,0.20,N,0.4,K*61
$GPZDA,033120,07,08,2004,00,00*42
$GPGGA,033120.371,4231.8293,N,08807.3055,W,1,06,1.6,225.2,M,-34.2,M,0.0,0000*48
$GPGSA,A,3,28,08,11,27,07,31,,,,,,,4.7,1.6,4.4*34
$GPGSV,3,1,09,28,65,318,41,08,59,188,41,31,57,252,42,11,50,084,46*7C
$GPGSV,3,2,09,07,38,247,45,27,34,171,41,26,17,290,00,29,16,281,*73
$GPGSV,3,3,09,19,15,054,00*4D
$GPRMC,033120.371,A,4231.8293,N,08807.3055,W,0.20,140.81,070804,,*12
$GPVTG,140.81,T,,M,0.20,N,0.4,K*6A
$GPMSS,0,0,0.000000,0,*58
$GPZDA,033121,07,08,2004,00,00*43
$GPGGA,033121.371,4231.8294,N,08807.3053,W,1,06,1.6,225.3,M,-34.2,M,0.0,0000*49
$GPGSA,A,3,28,08,11,27,07,31,,,,,,,4.7,1.6,4.4*34
$GPRMC,033121.371,A,4231.8294,N,08807.3053,W,0.20,140.79,070804,,*15
$GPVTG,140.79,T,,M,0.20,N,0.4,K*6D
$GPZDA,033122,07,08,2004,00,00*40
$GPGGA,033122.371,4231.8294,N,08807.3051,W,1,06,1.6,225.3,M,-34.2,M,0.0,0000*48
$GPGSA,A,3,28,08,11,27,07,31,,,,,,,4.7,1.6,4.4*34
$GPRMC,033122.371,A,4231.8294,N,08807.3051,W,0.20,141.43,070804,,*1C
$GPVTG,141.43,T,,M,0.20,N,0.4,K*65
$GPZDA,033123,07,08,2004,00,00*41
$GPGGA,033123.371,4231.8295,N,08807.3050,W,1,06,1.6,225.3,M,-34.2,M,0.0,0000*49
$GPGSA,A,3,28,08,11,27,07,31,,,,,,,4.7,1.6,4.4*34
$GPRMC,033123.371,A,4231.8295,N,08807.3050,W,0.20,142.30,070804,,*1A
$GPVTG,142.30,T,,M,0.20,N,0.4,K*62
$GPZDA,033124,07,08,2004,00,00*46
$GPGGA,033124.371,4231.8296,N,08807.3049,W,1,06,1.6,225.2,M,-34.2,M,0.0,0000*44
$GPGSA,A,3,28,08,11,27,07,31,,,,,,,4.7,1.6,4.4*34
$GPRMC,033124.371,A,4231.8296,N,08807.3049,W,0.18,140.81,070804,,*15
$GPVTG,140.81,T,,M,0.18,N,0.3,K*66
$GPZDA,033125,07,08,2004,00,00*47
$GPGGA,033125.371,4231.8296,N,08807.3050,W,1,06,1.6,225.2,M,-34.2,M,0.0,0000*4D
$GPGSA,A,3,28,08,11,27,07,31,,,,,,,4.7,1.6,4.4*34
$GPGSV,3,1,09,28,65,318,41,08,59,188,41,31,57,252,41,11,50,084,47*7E
$GPGSV,3,2,09,07,38,247,44,27,34,171,41,26,17,290,00,29,16,281,*72
$GPGSV,3,3,09,19,15,054,00*4D
$GPRMC,033125.371,A,4231.8296,N,08807.3050,W,0.19,142.40,070804,,*12
$GPVTG,142.40,T,,M,0.19,N,0.4,K*6F
$GPMSS,0,0,0.000000,0,*58
$GPZDA,033126,07,08,2004,00,00*44
$GPGGA,033126.371,4231.8297,N,08807.3051,W,1,06,1.6,225.2,M,-34.2,M,0.0,0000*4E
$GPGSA,A,3,28,08,11,27,07,31,,,,,,,4.7,1.6,4.4*34
$GPRMC,033126.371,A,4231.8297,N,08807.3051,W,0.19,140.33,070804,,*17
$GPVTG,140.33,T,,M,0.19,N,0.3,K*6E
$GPZDA,033127,07,08,2004,00,00*45
$GPGGA,033127.371,4231.8298,N,08807.3052,W,1,06,1.6,225.1,M,-34.2,M,0.0,0000*40
$GPGSA,A,3,28,08,11,27,07,31,,,,,,,4.7,1.6,4.4*34
$GPRMC,033127.371,A,4231.8298,N,08807.3052,W,0.17,137.77,070804,,*14
$GPVTG,137.77,T,,M,0.17,N,0.3,K*60
$GPZDA,033128,07,08,2004,00,00*4A
$GPGGA,033128.371,4231.8298,N,08807.3053,W,1,06,1.6,225.0,M,-34.2,M,0.0,0000*4F
$GPGSA,A,3,28,08,11,27,07,31,,,,,,,4.7,1.6,4.4*34
$GPRMC,033128.371,A,4231.8298,N,08807.3053,W,0.21,142.29,070804,,*16
$GPVTG,142.29,T,,M,0.21,N,0.4,K*6B
$GPZDA,033129,07,08,2004,00,00*4B
$GPGGA,033129.371,4231.8299,N,08807.3054,W,1,06,1.6,224.9,M,-34.2,M,0.0,0000*40
$GPGSA,A,3,28,08,11,27,07,31,,,,,,,4.7,1.6,4.4*34
$GPRMC,033129.371,A,4231.8299,N,08807.3054,W,0.20,140.87,070804,,*16
$GPVTG,140.87,T,,M,0.20,N,0.4,K*6C
$GPZDA,033130,07,08,2004,00,00*43
$GPGGA,033130.371,4231.8300,N,08807.3055,W,1,06,1.6,224.7,M,-34.2,M,0.0,0000*46
$GPGSA,A,3,28,08,11,27,07,31,,,,,,,4.7,1.6,4.4*34
$GPGSV,3,1,09,28,65,318,41,08,59,188,41,31,57,252,42,11,50,084,47*7D
$GPGSV,3,2,09,07,38,247,45,27,34,171,41,26,17,290,00,29,16,281,*73
$GPGSV,3,3,09,19,15,054,00*4D
$GPRMC,033130.371,A,4231.8300,N,08807.3055,W,0.19,141.70,070804,,*1D
$GPVTG,141.70,T,,M,0.19,N,0.4,K*6F
$GPMSS,0,0,0.000000,0,*58
$GPZDA,033131,07,08,2004,00,00*42
$GPGGA,033131.371,4231.8300,N,08807.3055,W,1,06,1.6,224.5,M,-34.2,M,0.0,0000*45
$GPGSA,A,3,28,08,11,27,07,31,,,,,,,4.7,1.6,4.4*34
$GPRMC,033131.371,A,4231.8300,N,08807.3055,W,0.20,141.70,070804,,*16
$GPVTG,141.70,T,,M,0.20,N,0.4,K*65
$GPZDA,033132,07,08,2004,00,00*41
$GPGGA,033132.371,4231.8301,N,08807.3056,W,1,06,1.6,224.3,M,-34.2,M,0.0,0000*42
$GPGSA,A,3,28,08,11,27,07,31,,,,,,,4.7,1.6,4.4*34
$GPRMC,033132.371,A,4231.8301,N,08807.3056,W,0.19,140.33,070804,,*1B
$GPVTG,140.33,T,,M,0.19,N,0.4,K*69
$GPZDA,033133,07,08,2004,00,00*40
$GPGGA,033133.370,4231.8301,N,08807.3057,W,1,06,1.6,224.1,M,-34.2,M,0.0,0000*41
$GPGSA,A,3,28,08,11,27,07,31,,,,,,,4.7,1.6,4.4*34
$GPRMC,033133.370,A,4231.8301,N,08807.3057,W,0.19,139.05,070804,,*11
$GPVTG,139.05,T,,M,0.19,N,0.4,K*62
$GPZDA,033134,07,08,2004,00,00*47
$GPGGA,033134.370,4231.8302,N,08807.3057,W,1,06,1.6,223.9,M,-34.2,M,0.0,0000*4A
$GPGSA,A,3,28,08,11,27,07,31,,,,,,,4.7,1.6,4.4*34
$GPRMC,033134.370,A,4231.8302,N,08807.3057,W,0.19,144.46,070804,,*18
$GPVTG,144.46,T,,M,0.19,N,0.4,K*6F
$GPZDA,033135,07,08,2004,00,00*46
$GPGGA,033135.370,4231.8303,N,08807.3058,W,1,06,1.6,223.7,M,-34.2,M,0.0,0000*4B
$GPGSA,A,3,28,08,11,27,07,31,,,,,,,4.7,1.6,4.4*34
$GPGSV,3,1,09,28,65,318,40,08,59,188,42,31,57,252,42,11,50,084,47*7F
$GPGSV,3,2,09,07,38,247,45,27,34,171,42,26,17,290,00,29,16,281,*70
$GPGSV,3,3,09,19,15,054,00*4D
$GPRMC,033135.370,A,4231.8303,N,08807.3058,W,0.20,139.03,070804,,*16
$GPVTG,139.03,T,,M,0.20,N,0.4,K*6E
$GPMSS,0,0,0.000000,0,*58
$GPZDA,033136,07,08,2004,00,00*45
$GPGGA,033136.370,4231.8304,N,08807.3058,W,1,06,1.6,223.4,M,-34.2,M,0.0,0000*4C
$GPGSA,A,3,28,08,11,27,07,31,,,,,,,4.7,1.6,4.4*34
$GPRMC,033136.370,A,4231.8304,N,08807.3058,W,0.19,142.19,070804,,*1F
$GPVTG,142.19,T,,M,0.19,N,0.4,K*63
$GPZDA,033137,07,08,2004,00,00*44
$GPGGA,033137.370,4231.8305,N,08807.3058,W,1,06,1.6,223.1,M,-34.2,M,0.0,0000*49
$GPGSA,A,3,28,08,11,27,07,31,,,,,,,4.7,1.6,4.4*34
$GPRMC,033137.370,A,4231.8305,N,08807.3058,W,0.19,141.35,070804,,*12
$GPVTG,141.35,T,,M,0.19,N,0.4,K*6E
$GPZDA,033138,07,08,2004,00,00*4B
$GPGGA,033138.370,4231.8306,N,08807.3058,W,1,06,1.6,222.7,M,-34.2,M,0.0,0000*42
$GPGSA,A,3,28,08,11,27,07,31,,,,,,,4.7,1.6,4.4*34
$GPRMC,033138.370,A,4231.8306,N,08807.3058,W,0.19,142.45,070804,,*1A
$GPVTG,142.45,T,,M,0.19,N,0.4,K*6A
$GPZDA,033139,07,08,2004,00,00*4A
$GPGGA,033139.370,4231.8308,N,08807.3057,W,1,06,1.6,222.3,M,-34.2,M,0.0,0000*46
$GPGSA,A,3,28,08,11,27,07,31,,,,,,,4.7,1.6,4.4*34
$GPRMC,033139.370,A,4231.8308,N,08807.3057,W,0.19,142.00,070804,,*1B
$GPVTG,142.00,T,,M,0.19,N,0.4,K*6B
$GPZDA,033140,07,08,2004,00,00*44
$GPGGA,033140.370,4231.8309,N,08807.3056,W,1,06,1.6,221.9,M,-34.2,M,0.0,0000*41
$GPGSA,A,3,28,08,11,27,07,31,,,,,,,4.7,1.6,4.4*34
$GPGSV,3,1,09,28,65,318,41,08,59,188,42,31,57,252,43,11,50,084,46*7E
$GPGSV,3,2,09,07,38,247,45,27,34,171,41,26,17,290,00,29,16,281,*73
$GPGSV,3,3,09,19,15,054,00*4D
$GPRMC,033140.370,A,4231.8309,N,08807.3056,W,0.20,138.74,070804,,*11
$GPVTG,138.74,T,,M,0.20,N,0.4,K*6F
$GPMSS,0,0,0.000000,0,*58
$GPZDA,033141,07,08,2004,00,00*45
$GPGGA,033141.370,4231.8310,N,08807.3055,W,1,06,1.6,221.4,M,-34.2,M,0.0,0000*46
$GPGSA,A,3,28,08,11,27,07,31,,,,,,,4.7,1.6,4.4*34
$GPRMC,033141.370,A,4231.8310,N,08807.3055,W,0.19,137.91,070804,,*15
$GPVTG,137.91,T,,M,0.19,N,0.4,K*61
